[
  {
    "date": "2024/01/01",
    "month": "2024-01",
    "lottery": "今彩539",
    "weight": 1,
    "color": "#d97706",
    "store": "全大獎商行",
    "district": "臺北市中正區",
    "lat": 25.02091,
    "lng": 121.523911
  },
  {
    "date": "2024/01/01",
    "month": "2024-01",
    "lottery": "今彩539",
    "weight": 1,
    "color": "#d97706",
    "store": "寶來投注站",
    "district": "彰化縣員林市",
    "lat": 23.959014,
    "lng": 120.598976
  },
  {
    "date": "2024/01/02",
    "month": "2024-01",
    "lottery": "今彩539",
    "weight": 1,
    "color": "#d97706",
    "store": "億萬錸彩券行",
    "district": "宜蘭縣冬山鄉",
    "lat": 24.645122,
    "lng": 121.754215
  },
  {
    "date": "2024/01/05",
    "month": "2024-01",
    "lottery": "今彩539",
    "weight": 1,
    "color": "#d97706",
    "store": "貴賓彩券行",
    "district": "高雄市鳳山區",
    "lat": 22.610643,
    "lng": 120.353508
  },
  {
    "date": "2024/01/06",
    "month": "2024-01",
    "lottery": "今彩539",
    "weight": 1,
    "color": "#d97706",
    "store": "超級旺彩券行",
    "district": "桃園市楊梅區",
    "lat": 24.916253,
    "lng": 121.123672
  },
  {
    "date": "2024/01/08",
    "month": "2024-01",
    "lottery": "今彩539",
    "weight": 1,
    "color": "#d97706",
    "store": "宏勝彩券行",
    "district": "新北市三重區",
    "lat": 25.064196,
    "lng": 121.496572
  },
  {
    "date": "2024/01/08",
    "month": "2024-01",
    "lottery": "今彩539",
    "weight": 1,
    "color": "#d97706",
    "store": "財運到彩券行",
    "district": "南投縣埔里鎮",
    "lat": 23.966903,
    "lng": 120.968288
  },
  {
    "date": "2024/01/08",
    "month": "2024-01",
    "lottery": "今彩539",
    "weight": 1,
    "color": "#d97706",
    "store": "納福彩券行",
    "district": "桃園市龜山區",
    "lat": 25.025489,
    "lng": 121.365497
  },
  {
    "date": "2024/01/09",
    "month": "2024-01",
    "lottery": "今彩539",
    "weight": 1,
    "color": "#d97706",
    "store": "強盛彩券行",
    "district": "桃園市中壢區",
    "lat": 24.985917,
    "lng": 121.211701
  },
  {
    "date": "2024/01/10",
    "month": "2024-01",
    "lottery": "今彩539",
    "weight": 1,
    "color": "#d97706",
    "store": "双贏彩券行",
    "district": "臺南市佳里區",
    "lat": 23.169681,
    "lng": 120.17647
  },
  {
    "date": "2024/01/10",
    "month": "2024-01",
    "lottery": "今彩539",
    "weight": 1,
    "color": "#d97706",
    "store": "有錢真好商行",
    "district": "臺中市西區",
    "lat": 24.147692,
    "lng": 120.663431
  },
  {
    "date": "2024/01/13",
    "month": "2024-01",
    "lottery": "今彩539",
    "weight": 1,
    "color": "#d97706",
    "store": "金滿溢彩券行",
    "district": "彰化縣彰化市",
    "lat": 24.072242,
    "lng": 120.562039
  },
  {
    "date": "2024/01/13",
    "month": "2024-01",
    "lottery": "今彩539",
    "weight": 1,
    "color": "#d97706",
    "store": "達樂彩券行",
    "district": "桃園市中壢區",
    "lat": 24.985917,
    "lng": 121.211701
  },
  {
    "date": "2024/01/13",
    "month": "2024-01",
    "lottery": "今彩539",
    "weight": 1,
    "color": "#d97706",
    "store": "金圓彩券行",
    "district": "宜蘭縣礁溪鄉",
    "lat": 24.809254,
    "lng": 121.728334
  },
  {
    "date": "2024/01/15",
    "month": "2024-01",
    "lottery": "今彩539",
    "weight": 1,
    "color": "#d97706",
    "store": "長立彩券行",
    "district": "嘉義縣太保市",
    "lat": 23.477058,
    "lng": 120.354466
  },
  {
    "date": "2024/01/16",
    "month": "2024-01",
    "lottery": "今彩539",
    "weight": 1,
    "color": "#d97706",
    "store": "順風發投注站",
    "district": "桃園市桃園區",
    "lat": 24.995152,
    "lng": 121.29819
  },
  {
    "date": "2024/01/16",
    "month": "2024-01",
    "lottery": "今彩539",
    "weight": 1,
    "color": "#d97706",
    "store": "有錢爺爺彩券行",
    "district": "高雄市左營區",
    "lat": 22.682266,
    "lng": 120.292526
  },
  {
    "date": "2024/01/16",
    "month": "2024-01",
    "lottery": "今彩539",
    "weight": 1,
    "color": "#d97706",
    "store": "財富自由彩券行",
    "district": "雲林縣斗六市",
    "lat": 23.699892,
    "lng": 120.571829
  },
  {
    "date": "2024/01/16",
    "month": "2024-01",
    "lottery": "今彩539",
    "weight": 1,
    "color": "#d97706",
    "store": "有錢爺爺彩券行",
    "district": "高雄市左營區",
    "lat": 22.682266,
    "lng": 120.292526
  },
  {
    "date": "2024/01/16",
    "month": "2024-01",
    "lottery": "大樂透",
    "weight": 2,
    "color": "#fbbf24",
    "store": "樂得億彩券行",
    "district": "臺中市神岡區",
    "lat": 24.256672,
    "lng": 120.674946
  },
  {
    "date": "2024/01/19",
    "month": "2024-01",
    "lottery": "今彩539",
    "weight": 1,
    "color": "#d97706",
    "store": "喜鵲彩券行",
    "district": "臺南市南區",
    "lat": 22.94671,
    "lng": 120.187394
  },
  {
    "date": "2024/01/22",
    "month": "2024-01",
    "lottery": "今彩539",
    "weight": 1,
    "color": "#d97706",
    "store": "萬福彩券行",
    "district": "臺北市萬華區",
    "lat": 25.027216,
    "lng": 121.494583
  },
  {
    "date": "2024/01/22",
    "month": "2024-01",
    "lottery": "今彩539",
    "weight": 1,
    "color": "#d97706",
    "store": "金正賀商行",
    "district": "高雄市楠梓區",
    "lat": 22.723949,
    "lng": 120.30416
  },
  {
    "date": "2024/01/22",
    "month": "2024-01",
    "lottery": "今彩539",
    "weight": 1,
    "color": "#d97706",
    "store": "天天中大獎彩券行",
    "district": "新北市三重區",
    "lat": 25.064196,
    "lng": 121.496572
  },
  {
    "date": "2024/01/22",
    "month": "2024-01",
    "lottery": "威力彩",
    "weight": 3,
    "color": "#ff6b35",
    "store": "彩鑫商行",
    "district": "高雄市鼓山區",
    "lat": 22.645232,
    "lng": 120.274918
  },
  {
    "date": "2024/01/27",
    "month": "2024-01",
    "lottery": "今彩539",
    "weight": 1,
    "color": "#d97706",
    "store": "盛開彩券行",
    "district": "新北市中和區",
    "lat": 24.993918,
    "lng": 121.494671
  },
  {
    "date": "2024/01/29",
    "month": "2024-01",
    "lottery": "今彩539",
    "weight": 1,
    "color": "#d97706",
    "store": "財福彩券行",
    "district": "嘉義縣民雄鄉",
    "lat": 23.540337,
    "lng": 120.451897
  },
  {
    "date": "2024/01/30",
    "month": "2024-01",
    "lottery": "今彩539",
    "weight": 1,
    "color": "#d97706",
    "store": "財如億彩券行",
    "district": "臺南市北區",
    "lat": 23.01072,
    "lng": 120.210229
  },
  {
    "date": "2024/02/01",
    "month": "2024-02",
    "lottery": "今彩539",
    "weight": 1,
    "color": "#d97706",
    "store": "大利中彩券行",
    "district": "高雄市左營區",
    "lat": 22.682266,
    "lng": 120.292526
  },
  {
    "date": "2024/02/02",
    "month": "2024-02",
    "lottery": "今彩539",
    "weight": 1,
    "color": "#d97706",
    "store": "大發發彩券行",
    "district": "臺南市中西區",
    "lat": 22.998163,
    "lng": 120.186425
  },
  {
    "date": "2024/02/03",
    "month": "2024-02",
    "lottery": "今彩539",
    "weight": 1,
    "color": "#d97706",
    "store": "滿滿讚彩券行",
    "district": "高雄市鳳山區",
    "lat": 22.610643,
    "lng": 120.353508
  },
  {
    "date": "2024/02/03",
    "month": "2024-02",
    "lottery": "今彩539",
    "weight": 1,
    "color": "#d97706",
    "store": "樂滿億彩券行",
    "district": "宜蘭縣礁溪鄉",
    "lat": 24.809254,
    "lng": 121.728334
  },
  {
    "date": "2024/02/03",
    "month": "2024-02",
    "lottery": "今彩539",
    "weight": 1,
    "color": "#d97706",
    "store": "ㄧ定發彩券行",
    "district": "臺北市中山區",
    "lat": 25.07105,
    "lng": 121.541764
  },
  {
    "date": "2024/02/05",
    "month": "2024-02",
    "lottery": "今彩539",
    "weight": 1,
    "color": "#d97706",
    "store": "元富彩券行",
    "district": "高雄市三民區",
    "lat": 22.656204,
    "lng": 120.320193
  },
  {
    "date": "2024/02/05",
    "month": "2024-02",
    "lottery": "今彩539",
    "weight": 1,
    "color": "#d97706",
    "store": "好運多彩券行",
    "district": "桃園市八德區",
    "lat": 24.952312,
    "lng": 121.289333
  },
  {
    "date": "2024/02/05",
    "month": "2024-02",
    "lottery": "今彩539",
    "weight": 1,
    "color": "#d97706",
    "store": "神算中霸天彩券行",
    "district": "臺中市霧峰區",
    "lat": 24.057827,
    "lng": 120.737643
  },
  {
    "date": "2024/02/06",
    "month": "2024-02",
    "lottery": "今彩539",
    "weight": 1,
    "color": "#d97706",
    "store": "鼎勝彩券行",
    "district": "高雄市新興區",
    "lat": 22.630303,
    "lng": 120.307958
  },
  {
    "date": "2024/02/07",
    "month": "2024-02",
    "lottery": "今彩539",
    "weight": 1,
    "color": "#d97706",
    "store": "財神到彩券行",
    "district": "嘉義市西區",
    "lat": 23.476874,
    "lng": 120.421434
  },
  {
    "date": "2024/02/07",
    "month": "2024-02",
    "lottery": "今彩539",
    "weight": 1,
    "color": "#d97706",
    "store": "信陽彩券行",
    "district": "臺北市中正區",
    "lat": 25.02091,
    "lng": 121.523911
  },
  {
    "date": "2024/02/10",
    "month": "2024-02",
    "lottery": "大樂透",
    "weight": 2,
    "color": "#fbbf24",
    "store": "財富自由彩券行",
    "district": "臺中市太平區",
    "lat": 24.104296,
    "lng": 120.783748
  },
  {
    "date": "2024/02/10",
    "month": "2024-02",
    "lottery": "大樂透",
    "weight": 2,
    "color": "#fbbf24",
    "store": "將帥彩券行",
    "district": "新北市中和區",
    "lat": 24.993918,
    "lng": 121.494671
  },
  {
    "date": "2024/02/11",
    "month": "2024-02",
    "lottery": "大樂透",
    "weight": 2,
    "color": "#fbbf24",
    "store": "贏通海彩券行",
    "district": "臺南市善化區",
    "lat": 23.128249,
    "lng": 120.290672
  },
  {
    "date": "2024/02/12",
    "month": "2024-02",
    "lottery": "今彩539",
    "weight": 1,
    "color": "#d97706",
    "store": "旺里發彩券行",
    "district": "屏東縣里港鄉",
    "lat": 22.799535,
    "lng": 120.509194
  },
  {
    "date": "2024/02/12",
    "month": "2024-02",
    "lottery": "今彩539",
    "weight": 1,
    "color": "#d97706",
    "store": "五路金財神彩券行",
    "district": "新北市金山區",
    "lat": 25.198877,
    "lng": 121.589311
  },
  {
    "date": "2024/02/13",
    "month": "2024-02",
    "lottery": "今彩539",
    "weight": 1,
    "color": "#d97706",
    "store": "龍億來彩券行",
    "district": "高雄市三民區",
    "lat": 22.656204,
    "lng": 120.320193
  },
  {
    "date": "2024/02/13",
    "month": "2024-02",
    "lottery": "今彩539",
    "weight": 1,
    "color": "#d97706",
    "store": "來發彩券行",
    "district": "臺南市新營區",
    "lat": 23.309858,
    "lng": 120.298955
  },
  {
    "date": "2024/02/14",
    "month": "2024-02",
    "lottery": "大樂透",
    "weight": 2,
    "color": "#fbbf24",
    "store": "竹旺彩券行",
    "district": "高雄市路竹區",
    "lat": 22.859127,
    "lng": 120.266046
  },
  {
    "date": "2024/02/15",
    "month": "2024-02",
    "lottery": "大樂透",
    "weight": 2,
    "color": "#fbbf24",
    "store": "億昇彩券行",
    "district": "臺中市烏日區",
    "lat": 24.083815,
    "lng": 120.632035
  },
  {
    "date": "2024/02/15",
    "month": "2024-02",
    "lottery": "今彩539",
    "weight": 1,
    "color": "#d97706",
    "store": "豹發富彩券行",
    "district": "嘉義市西區",
    "lat": 23.476874,
    "lng": 120.421434
  },
  {
    "date": "2024/02/17",
    "month": "2024-02",
    "lottery": "今彩539",
    "weight": 1,
    "color": "#d97706",
    "store": "開拉特彩券行",
    "district": "臺中市沙鹿區",
    "lat": 24.231531,
    "lng": 120.582453
  },
  {
    "date": "2024/02/17",
    "month": "2024-02",
    "lottery": "今彩539",
    "weight": 1,
    "color": "#d97706",
    "store": "歡喜中彩券行",
    "district": "臺中市大里區",
    "lat": 24.099008,
    "lng": 120.709811
  },
  {
    "date": "2024/02/17",
    "month": "2024-02",
    "lottery": "今彩539",
    "weight": 1,
    "color": "#d97706",
    "store": "金多寶彩券行",
    "district": "嘉義市東區",
    "lat": 23.48393,
    "lng": 120.469384
  },
  {
    "date": "2024/02/18",
    "month": "2024-02",
    "lottery": "大樂透",
    "weight": 2,
    "color": "#fbbf24",
    "store": "一八八投注站",
    "district": "嘉義市西區",
    "lat": 23.476874,
    "lng": 120.421434
  },
  {
    "date": "2024/02/18",
    "month": "2024-02",
    "lottery": "大樂透",
    "weight": 2,
    "color": "#fbbf24",
    "store": "發發彩券行",
    "district": "新北市汐止區",
    "lat": 25.072574,
    "lng": 121.633024
  },
  {
    "date": "2024/02/19",
    "month": "2024-02",
    "lottery": "大樂透",
    "weight": 2,
    "color": "#fbbf24",
    "store": "彩鈴投注站",
    "district": "臺北市內湖區",
    "lat": 25.088013,
    "lng": 121.610094
  },
  {
    "date": "2024/02/19",
    "month": "2024-02",
    "lottery": "今彩539",
    "weight": 1,
    "color": "#d97706",
    "store": "億來億去彩券行",
    "district": "新北市瑞芳區",
    "lat": 25.102735,
    "lng": 121.832507
  },
  {
    "date": "2024/02/19",
    "month": "2024-02",
    "lottery": "今彩539",
    "weight": 1,
    "color": "#d97706",
    "store": "貞好運彩券行",
    "district": "新北市永和區",
    "lat": 25.013513,
    "lng": 121.515028
  },
  {
    "date": "2024/02/20",
    "month": "2024-02",
    "lottery": "今彩539",
    "weight": 1,
    "color": "#d97706",
    "store": "億客來彩券行",
    "district": "高雄市新興區",
    "lat": 22.630303,
    "lng": 120.307958
  },
  {
    "date": "2024/02/22",
    "month": "2024-02",
    "lottery": "今彩539",
    "weight": 1,
    "color": "#d97706",
    "store": "吉來旺彩券行",
    "district": "臺南市玉井區",
    "lat": 23.115352,
    "lng": 120.463783
  },
  {
    "date": "2024/02/23",
    "month": "2024-02",
    "lottery": "今彩539",
    "weight": 1,
    "color": "#d97706",
    "store": "智軒商行",
    "district": "臺中市東區",
    "lat": 24.139245,
    "lng": 120.693522
  },
  {
    "date": "2024/02/24",
    "month": "2024-02",
    "lottery": "今彩539",
    "weight": 1,
    "color": "#d97706",
    "store": "宥得發電腦彩券行",
    "district": "臺北市萬華區",
    "lat": 25.027216,
    "lng": 121.494583
  },
  {
    "date": "2024/02/26",
    "month": "2024-02",
    "lottery": "今彩539",
    "weight": 1,
    "color": "#d97706",
    "store": "湧錢彩券行",
    "district": "宜蘭縣蘇澳鎮",
    "lat": 24.54526,
    "lng": 121.835206
  },
  {
    "date": "2024/02/26",
    "month": "2024-02",
    "lottery": "今彩539",
    "weight": 1,
    "color": "#d97706",
    "store": "旺七星彩券站",
    "district": "彰化縣北斗鎮",
    "lat": 23.866053,
    "lng": 120.533939
  },
  {
    "date": "2024/02/26",
    "month": "2024-02",
    "lottery": "威力彩",
    "weight": 3,
    "color": "#ff6b35",
    "store": "大豪發彩券行",
    "district": "高雄市三民區",
    "lat": 22.656204,
    "lng": 120.320193
  },
  {
    "date": "2024/02/27",
    "month": "2024-02",
    "lottery": "今彩539",
    "weight": 1,
    "color": "#d97706",
    "store": "財神到彩券行",
    "district": "高雄市苓雅區",
    "lat": 22.6226,
    "lng": 120.322253
  },
  {
    "date": "2024/02/29",
    "month": "2024-02",
    "lottery": "今彩539",
    "weight": 1,
    "color": "#d97706",
    "store": "三億投注站",
    "district": "苗栗縣三義鄉",
    "lat": 24.378981,
    "lng": 120.772725
  },
  {
    "date": "2024/02/29",
    "month": "2024-02",
    "lottery": "今彩539",
    "weight": 1,
    "color": "#d97706",
    "store": "祝幸福彩券行",
    "district": "高雄市苓雅區",
    "lat": 22.6226,
    "lng": 120.322253
  },
  {
    "date": "2024/03/01",
    "month": "2024-03",
    "lottery": "今彩539",
    "weight": 1,
    "color": "#d97706",
    "store": "財誠彩券行",
    "district": "屏東縣屏東市",
    "lat": 22.666038,
    "lng": 120.487866
  },
  {
    "date": "2024/03/01",
    "month": "2024-03",
    "lottery": "今彩539",
    "weight": 1,
    "color": "#d97706",
    "store": "九兆彩券行",
    "district": "高雄市三民區",
    "lat": 22.656204,
    "lng": 120.320193
  },
  {
    "date": "2024/03/02",
    "month": "2024-03",
    "lottery": "今彩539",
    "weight": 1,
    "color": "#d97706",
    "store": "寧穩發電腦彩券行",
    "district": "新北市土城區",
    "lat": 24.96641,
    "lng": 121.448583
  },
  {
    "date": "2024/03/02",
    "month": "2024-03",
    "lottery": "今彩539",
    "weight": 1,
    "color": "#d97706",
    "store": "一夜致富彩券行",
    "district": "花蓮縣吉安鄉",
    "lat": 23.961897,
    "lng": 121.565469
  },
  {
    "date": "2024/03/05",
    "month": "2024-03",
    "lottery": "今彩539",
    "weight": 1,
    "color": "#d97706",
    "store": "旺萊旺彩券行",
    "district": "臺中市中區",
    "lat": 24.140894,
    "lng": 120.682992
  },
  {
    "date": "2024/03/06",
    "month": "2024-03",
    "lottery": "今彩539",
    "weight": 1,
    "color": "#d97706",
    "store": "宜安彩券行",
    "district": "新北市中和區",
    "lat": 24.993918,
    "lng": 121.494671
  },
  {
    "date": "2024/03/09",
    "month": "2024-03",
    "lottery": "今彩539",
    "weight": 1,
    "color": "#d97706",
    "store": "發貴樂透站",
    "district": "花蓮縣吉安鄉",
    "lat": 23.961897,
    "lng": 121.565469
  },
  {
    "date": "2024/03/09",
    "month": "2024-03",
    "lottery": "今彩539",
    "weight": 1,
    "color": "#d97706",
    "store": "金富麗彩券行",
    "district": "桃園市蘆竹區",
    "lat": 25.059232,
    "lng": 121.291827
  },
  {
    "date": "2024/03/09",
    "month": "2024-03",
    "lottery": "今彩539",
    "weight": 1,
    "color": "#d97706",
    "store": "樂億得彩券行",
    "district": "屏東縣潮州鎮",
    "lat": 22.541624,
    "lng": 120.547841
  },
  {
    "date": "2024/03/11",
    "month": "2024-03",
    "lottery": "今彩539",
    "weight": 1,
    "color": "#d97706",
    "store": "財源滾滾企業社",
    "district": "新竹市東區",
    "lat": 24.783546,
    "lng": 120.988759
  },
  {
    "date": "2024/03/11",
    "month": "2024-03",
    "lottery": "今彩539",
    "weight": 1,
    "color": "#d97706",
    "store": "禾家歡投注站",
    "district": "新竹縣竹北市",
    "lat": 24.833879,
    "lng": 121.005342
  },
  {
    "date": "2024/03/12",
    "month": "2024-03",
    "lottery": "今彩539",
    "weight": 1,
    "color": "#d97706",
    "store": "尚億彩券行",
    "district": "彰化縣二林鎮",
    "lat": 23.911013,
    "lng": 120.400535
  },
  {
    "date": "2024/03/12",
    "month": "2024-03",
    "lottery": "今彩539",
    "weight": 1,
    "color": "#d97706",
    "store": "喜發投注站",
    "district": "花蓮縣新城鄉",
    "lat": 24.062177,
    "lng": 121.613778
  },
  {
    "date": "2024/03/12",
    "month": "2024-03",
    "lottery": "大樂透",
    "weight": 2,
    "color": "#fbbf24",
    "store": "億州企業社",
    "district": "桃園市桃園區",
    "lat": 24.995152,
    "lng": 121.29819
  },
  {
    "date": "2024/03/13",
    "month": "2024-03",
    "lottery": "今彩539",
    "weight": 1,
    "color": "#d97706",
    "store": "金好中彩券行",
    "district": "臺北市內湖區",
    "lat": 25.088013,
    "lng": 121.610094
  },
  {
    "date": "2024/03/14",
    "month": "2024-03",
    "lottery": "今彩539",
    "weight": 1,
    "color": "#d97706",
    "store": "最會中公益彩券行",
    "district": "臺南市安平區",
    "lat": 22.988707,
    "lng": 120.162113
  },
  {
    "date": "2024/03/15",
    "month": "2024-03",
    "lottery": "今彩539",
    "weight": 1,
    "color": "#d97706",
    "store": "七星大發財彩券行",
    "district": "南投縣竹山鎮",
    "lat": 23.697732,
    "lng": 120.715419
  },
  {
    "date": "2024/03/18",
    "month": "2024-03",
    "lottery": "今彩539",
    "weight": 1,
    "color": "#d97706",
    "store": "泉中彩券行",
    "district": "桃園市大園區",
    "lat": 25.051397,
    "lng": 121.213514
  },
  {
    "date": "2024/03/19",
    "month": "2024-03",
    "lottery": "今彩539",
    "weight": 1,
    "color": "#d97706",
    "store": "日財投注站",
    "district": "新北市泰山區",
    "lat": 25.058863,
    "lng": 121.407535
  },
  {
    "date": "2024/03/20",
    "month": "2024-03",
    "lottery": "今彩539",
    "weight": 1,
    "color": "#d97706",
    "store": "成功一彩券行",
    "district": "高雄市橋頭區",
    "lat": 22.750398,
    "lng": 120.29828
  },
  {
    "date": "2024/03/20",
    "month": "2024-03",
    "lottery": "今彩539",
    "weight": 1,
    "color": "#d97706",
    "store": "富財彩券行",
    "district": "南投縣草屯鎮",
    "lat": 23.978181,
    "lng": 120.737561
  },
  {
    "date": "2024/03/20",
    "month": "2024-03",
    "lottery": "今彩539",
    "weight": 1,
    "color": "#d97706",
    "store": "友彩福彩券行",
    "district": "新北市新莊區",
    "lat": 25.035566,
    "lng": 121.427788
  },
  {
    "date": "2024/03/21",
    "month": "2024-03",
    "lottery": "今彩539",
    "weight": 1,
    "color": "#d97706",
    "store": "錢現投注站",
    "district": "桃園市蘆竹區",
    "lat": 25.059232,
    "lng": 121.291827
  },
  {
    "date": "2024/03/25",
    "month": "2024-03",
    "lottery": "今彩539",
    "weight": 1,
    "color": "#d97706",
    "store": "大鉅彩券行",
    "district": "屏東縣潮州鎮",
    "lat": 22.541624,
    "lng": 120.547841
  },
  {
    "date": "2024/03/25",
    "month": "2024-03",
    "lottery": "今彩539",
    "weight": 1,
    "color": "#d97706",
    "store": "富貴春彩券行",
    "district": "屏東縣屏東市",
    "lat": 22.666038,
    "lng": 120.487866
  },
  {
    "date": "2024/03/25",
    "month": "2024-03",
    "lottery": "今彩539",
    "weight": 1,
    "color": "#d97706",
    "store": "鴻道公益彩券行",
    "district": "彰化縣花壇鄉",
    "lat": 24.032618,
    "lng": 120.561187
  },
  {
    "date": "2024/03/26",
    "month": "2024-03",
    "lottery": "今彩539",
    "weight": 1,
    "color": "#d97706",
    "store": "永鑫彩券行",
    "district": "臺中市北區",
    "lat": 24.153367,
    "lng": 120.684987
  },
  {
    "date": "2024/03/27",
    "month": "2024-03",
    "lottery": "今彩539",
    "weight": 1,
    "color": "#d97706",
    "store": "旺財神商行",
    "district": "臺北市中山區",
    "lat": 25.07105,
    "lng": 121.541764
  },
  {
    "date": "2024/03/27",
    "month": "2024-03",
    "lottery": "今彩539",
    "weight": 1,
    "color": "#d97706",
    "store": "橫財發彩券行",
    "district": "高雄市三民區",
    "lat": 22.656204,
    "lng": 120.320193
  },
  {
    "date": "2024/03/29",
    "month": "2024-03",
    "lottery": "今彩539",
    "weight": 1,
    "color": "#d97706",
    "store": "包你發彩券行",
    "district": "彰化縣彰化市",
    "lat": 24.072242,
    "lng": 120.562039
  },
  {
    "date": "2024/03/30",
    "month": "2024-03",
    "lottery": "今彩539",
    "weight": 1,
    "color": "#d97706",
    "store": "招財喵彩券行",
    "district": "臺中市西屯區",
    "lat": 24.182215,
    "lng": 120.627593
  },
  {
    "date": "2024/04/01",
    "month": "2024-04",
    "lottery": "今彩539",
    "weight": 1,
    "color": "#d97706",
    "store": "富野彩券商行",
    "district": "新北市土城區",
    "lat": 24.96641,
    "lng": 121.448583
  },
  {
    "date": "2024/04/02",
    "month": "2024-04",
    "lottery": "今彩539",
    "weight": 1,
    "color": "#d97706",
    "store": "鈔能力彩券行",
    "district": "新北市中和區",
    "lat": 24.993918,
    "lng": 121.494671
  },
  {
    "date": "2024/04/02",
    "month": "2024-04",
    "lottery": "今彩539",
    "weight": 1,
    "color": "#d97706",
    "store": "旺福彩券行",
    "district": "雲林縣麥寮鄉",
    "lat": 23.785292,
    "lng": 120.243218
  },
  {
    "date": "2024/04/02",
    "month": "2024-04",
    "lottery": "今彩539",
    "weight": 1,
    "color": "#d97706",
    "store": "東昇彩券行",
    "district": "臺南市中西區",
    "lat": 22.998163,
    "lng": 120.186425
  },
  {
    "date": "2024/04/02",
    "month": "2024-04",
    "lottery": "今彩539",
    "weight": 1,
    "color": "#d97706",
    "store": "三星彩券行",
    "district": "宜蘭縣蘇澳鎮",
    "lat": 24.54526,
    "lng": 121.835206
  },
  {
    "date": "2024/04/03",
    "month": "2024-04",
    "lottery": "今彩539",
    "weight": 1,
    "color": "#d97706",
    "store": "逸啟豪彩券行",
    "district": "臺北市信義區",
    "lat": 25.023785,
    "lng": 121.56766
  },
  {
    "date": "2024/04/08",
    "month": "2024-04",
    "lottery": "今彩539",
    "weight": 1,
    "color": "#d97706",
    "store": "金大運彩券行",
    "district": "桃園市八德區",
    "lat": 24.952312,
    "lng": 121.289333
  },
  {
    "date": "2024/04/09",
    "month": "2024-04",
    "lottery": "今彩539",
    "weight": 1,
    "color": "#d97706",
    "store": "金幸運彩券行",
    "district": "臺南市安南區",
    "lat": 23.052463,
    "lng": 120.166376
  },
  {
    "date": "2024/04/09",
    "month": "2024-04",
    "lottery": "大樂透",
    "weight": 2,
    "color": "#fbbf24",
    "store": "發發發彩券行",
    "district": "新竹縣關西鎮",
    "lat": 24.78752,
    "lng": 121.186244
  },
  {
    "date": "2024/04/10",
    "month": "2024-04",
    "lottery": "今彩539",
    "weight": 1,
    "color": "#d97706",
    "store": "財億萬來商店",
    "district": "新北市淡水區",
    "lat": 25.168258,
    "lng": 121.482692
  },
  {
    "date": "2024/04/10",
    "month": "2024-04",
    "lottery": "今彩539",
    "weight": 1,
    "color": "#d97706",
    "store": "獎樂多彩券行",
    "district": "臺中市大里區",
    "lat": 24.099008,
    "lng": 120.709811
  },
  {
    "date": "2024/04/12",
    "month": "2024-04",
    "lottery": "今彩539",
    "weight": 1,
    "color": "#d97706",
    "store": "金強運彩券行",
    "district": "屏東縣南州鄉",
    "lat": 22.480309,
    "lng": 120.518043
  },
  {
    "date": "2024/04/12",
    "month": "2024-04",
    "lottery": "大樂透",
    "weight": 2,
    "color": "#fbbf24",
    "store": "招鑫來彩券行",
    "district": "新北市林口區",
    "lat": 25.090457,
    "lng": 121.37086
  },
  {
    "date": "2024/04/15",
    "month": "2024-04",
    "lottery": "今彩539",
    "weight": 1,
    "color": "#d97706",
    "store": "龍錸發彩券行",
    "district": "新竹縣湖口鄉",
    "lat": 24.886389,
    "lng": 121.060227
  },
  {
    "date": "2024/04/15",
    "month": "2024-04",
    "lottery": "威力彩",
    "weight": 3,
    "color": "#ff6b35",
    "store": "日南來就發彩券行",
    "district": "臺中市大甲區",
    "lat": 24.370036,
    "lng": 120.631167
  },
  {
    "date": "2024/04/16",
    "month": "2024-04",
    "lottery": "今彩539",
    "weight": 1,
    "color": "#d97706",
    "store": "永慶彩券行",
    "district": "臺北市內湖區",
    "lat": 25.088013,
    "lng": 121.610094
  },
  {
    "date": "2024/04/16",
    "month": "2024-04",
    "lottery": "大樂透",
    "weight": 2,
    "color": "#fbbf24",
    "store": "好彩投注站",
    "district": "臺北市萬華區",
    "lat": 25.027216,
    "lng": 121.494583
  },
  {
    "date": "2024/04/17",
    "month": "2024-04",
    "lottery": "今彩539",
    "weight": 1,
    "color": "#d97706",
    "store": "佳旺彩券行",
    "district": "新北市板橋區",
    "lat": 25.013664,
    "lng": 121.469232
  },
  {
    "date": "2024/04/17",
    "month": "2024-04",
    "lottery": "今彩539",
    "weight": 1,
    "color": "#d97706",
    "store": "金安億公益彩券行",
    "district": "臺南市安平區",
    "lat": 22.988707,
    "lng": 120.162113
  },
  {
    "date": "2024/04/19",
    "month": "2024-04",
    "lottery": "今彩539",
    "weight": 1,
    "color": "#d97706",
    "store": "美子彩券行",
    "district": "桃園市桃園區",
    "lat": 24.995152,
    "lng": 121.29819
  },
  {
    "date": "2024/04/23",
    "month": "2024-04",
    "lottery": "今彩539",
    "weight": 1,
    "color": "#d97706",
    "store": "金品兆彩券行",
    "district": "臺北市內湖區",
    "lat": 25.088013,
    "lng": 121.610094
  },
  {
    "date": "2024/04/24",
    "month": "2024-04",
    "lottery": "今彩539",
    "weight": 1,
    "color": "#d97706",
    "store": "錢發發彩券行",
    "district": "新北市五股區",
    "lat": 25.094801,
    "lng": 121.433814
  },
  {
    "date": "2024/04/24",
    "month": "2024-04",
    "lottery": "今彩539",
    "weight": 1,
    "color": "#d97706",
    "store": "永保安康商行",
    "district": "臺南市永康區",
    "lat": 23.02771,
    "lng": 120.254339
  },
  {
    "date": "2024/04/24",
    "month": "2024-04",
    "lottery": "今彩539",
    "weight": 1,
    "color": "#d97706",
    "store": "尚樂彩券行",
    "district": "宜蘭縣羅東鎮",
    "lat": 24.67789,
    "lng": 121.770253
  },
  {
    "date": "2024/04/24",
    "month": "2024-04",
    "lottery": "今彩539",
    "weight": 1,
    "color": "#d97706",
    "store": "泉中彩券行",
    "district": "桃園市大園區",
    "lat": 25.051397,
    "lng": 121.213514
  },
  {
    "date": "2024/04/24",
    "month": "2024-04",
    "lottery": "今彩539",
    "weight": 1,
    "color": "#d97706",
    "store": "誠億彩券行",
    "district": "臺北市中正區",
    "lat": 25.02091,
    "lng": 121.523911
  },
  {
    "date": "2024/04/24",
    "month": "2024-04",
    "lottery": "今彩539",
    "weight": 1,
    "color": "#d97706",
    "store": "必勝企業社",
    "district": "新竹縣北埔鄉",
    "lat": 24.676168,
    "lng": 121.061174
  },
  {
    "date": "2024/04/24",
    "month": "2024-04",
    "lottery": "今彩539",
    "weight": 1,
    "color": "#d97706",
    "store": "秋福彩券行",
    "district": "臺中市南屯區",
    "lat": 24.143813,
    "lng": 120.616627
  },
  {
    "date": "2024/04/24",
    "month": "2024-04",
    "lottery": "今彩539",
    "weight": 1,
    "color": "#d97706",
    "store": "樂盈盈彩券行",
    "district": "臺北市大安區",
    "lat": 25.026843,
    "lng": 121.546874
  },
  {
    "date": "2024/04/24",
    "month": "2024-04",
    "lottery": "今彩539",
    "weight": 1,
    "color": "#d97706",
    "store": "中滿億彩券行",
    "district": "宜蘭縣宜蘭市",
    "lat": 24.753447,
    "lng": 121.756565
  },
  {
    "date": "2024/04/25",
    "month": "2024-04",
    "lottery": "今彩539",
    "weight": 1,
    "color": "#d97706",
    "store": "迎東橋彩券行",
    "district": "臺南市永康區",
    "lat": 23.02771,
    "lng": 120.254339
  },
  {
    "date": "2024/04/25",
    "month": "2024-04",
    "lottery": "今彩539",
    "weight": 1,
    "color": "#d97706",
    "store": "大偉投注站",
    "district": "新北市新店區",
    "lat": 24.930194,
    "lng": 121.532843
  },
  {
    "date": "2024/04/29",
    "month": "2024-04",
    "lottery": "今彩539",
    "weight": 1,
    "color": "#d97706",
    "store": "展財彩券行",
    "district": "新北市板橋區",
    "lat": 25.013664,
    "lng": 121.469232
  },
  {
    "date": "2024/04/29",
    "month": "2024-04",
    "lottery": "今彩539",
    "weight": 1,
    "color": "#d97706",
    "store": "鋐運旺公益彩券投注站",
    "district": "新北市新莊區",
    "lat": 25.035566,
    "lng": 121.427788
  },
  {
    "date": "2024/04/29",
    "month": "2024-04",
    "lottery": "今彩539",
    "weight": 1,
    "color": "#d97706",
    "store": "生財運商行",
    "district": "彰化縣溪湖鎮",
    "lat": 23.954045,
    "lng": 120.486883
  },
  {
    "date": "2024/04/30",
    "month": "2024-04",
    "lottery": "今彩539",
    "weight": 1,
    "color": "#d97706",
    "store": "好會中彩券行",
    "district": "新北市中和區",
    "lat": 24.993918,
    "lng": 121.494671
  },
  {
    "date": "2024/05/02",
    "month": "2024-05",
    "lottery": "今彩539",
    "weight": 1,
    "color": "#d97706",
    "store": "得鴻福彩券行",
    "district": "臺中市南區",
    "lat": 24.119227,
    "lng": 120.665638
  },
  {
    "date": "2024/05/02",
    "month": "2024-05",
    "lottery": "今彩539",
    "weight": 1,
    "color": "#d97706",
    "store": "億萬富豪彩券行",
    "district": "臺中市大肚區",
    "lat": 24.148742,
    "lng": 120.558177
  },
  {
    "date": "2024/05/02",
    "month": "2024-05",
    "lottery": "今彩539",
    "weight": 1,
    "color": "#d97706",
    "store": "財富來彩券行",
    "district": "新北市新莊區",
    "lat": 25.035566,
    "lng": 121.427788
  },
  {
    "date": "2024/05/03",
    "month": "2024-05",
    "lottery": "今彩539",
    "weight": 1,
    "color": "#d97706",
    "store": "財雲軒彩券商行",
    "district": "臺北市大安區",
    "lat": 25.026843,
    "lng": 121.546874
  },
  {
    "date": "2024/05/03",
    "month": "2024-05",
    "lottery": "今彩539",
    "weight": 1,
    "color": "#d97706",
    "store": "翊寶商行",
    "district": "新北市三峽區",
    "lat": 24.878212,
    "lng": 121.413448
  },
  {
    "date": "2024/05/03",
    "month": "2024-05",
    "lottery": "今彩539",
    "weight": 1,
    "color": "#d97706",
    "store": "金富豪彩券行",
    "district": "雲林縣斗六市",
    "lat": 23.699892,
    "lng": 120.571829
  },
  {
    "date": "2024/05/04",
    "month": "2024-05",
    "lottery": "今彩539",
    "weight": 1,
    "color": "#d97706",
    "store": "八斗子彩券行",
    "district": "基隆市中正區",
    "lat": 25.149013,
    "lng": 121.780302
  },
  {
    "date": "2024/05/04",
    "month": "2024-05",
    "lottery": "今彩539",
    "weight": 1,
    "color": "#d97706",
    "store": "金來富彩券行",
    "district": "臺中市西區",
    "lat": 24.147692,
    "lng": 120.663431
  },
  {
    "date": "2024/05/04",
    "month": "2024-05",
    "lottery": "今彩539",
    "weight": 1,
    "color": "#d97706",
    "store": "我會發商行",
    "district": "新北市三重區",
    "lat": 25.064196,
    "lng": 121.496572
  },
  {
    "date": "2024/05/08",
    "month": "2024-05",
    "lottery": "今彩539",
    "weight": 1,
    "color": "#d97706",
    "store": "萬旺彩券行",
    "district": "桃園市桃園區",
    "lat": 24.995152,
    "lng": 121.29819
  },
  {
    "date": "2024/05/09",
    "month": "2024-05",
    "lottery": "今彩539",
    "weight": 1,
    "color": "#d97706",
    "store": "鑫旺財商行",
    "district": "高雄市楠梓區",
    "lat": 22.723949,
    "lng": 120.30416
  },
  {
    "date": "2024/05/11",
    "month": "2024-05",
    "lottery": "今彩539",
    "weight": 1,
    "color": "#d97706",
    "store": "彩亨投注站",
    "district": "新北市三芝區",
    "lat": 25.216721,
    "lng": 121.525571
  },
  {
    "date": "2024/05/13",
    "month": "2024-05",
    "lottery": "今彩539",
    "weight": 1,
    "color": "#d97706",
    "store": "金大發彩券行",
    "district": "彰化縣彰化市",
    "lat": 24.072242,
    "lng": 120.562039
  },
  {
    "date": "2024/05/13",
    "month": "2024-05",
    "lottery": "今彩539",
    "weight": 1,
    "color": "#d97706",
    "store": "千帥彩券行",
    "district": "臺中市沙鹿區",
    "lat": 24.231531,
    "lng": 120.582453
  },
  {
    "date": "2024/05/15",
    "month": "2024-05",
    "lottery": "今彩539",
    "weight": 1,
    "color": "#d97706",
    "store": "數十億彩券行",
    "district": "臺北市北投區",
    "lat": 25.166155,
    "lng": 121.517083
  },
  {
    "date": "2024/05/17",
    "month": "2024-05",
    "lottery": "今彩539",
    "weight": 1,
    "color": "#d97706",
    "store": "贏家投注站",
    "district": "桃園市蘆竹區",
    "lat": 25.059232,
    "lng": 121.291827
  },
  {
    "date": "2024/05/17",
    "month": "2024-05",
    "lottery": "今彩539",
    "weight": 1,
    "color": "#d97706",
    "store": "黃金連線彩券行",
    "district": "臺北市大安區",
    "lat": 25.026843,
    "lng": 121.546874
  },
  {
    "date": "2024/05/17",
    "month": "2024-05",
    "lottery": "大樂透",
    "weight": 2,
    "color": "#fbbf24",
    "store": "阿蓮一路發彩券行",
    "district": "臺中市西區",
    "lat": 24.147692,
    "lng": 120.663431
  },
  {
    "date": "2024/05/18",
    "month": "2024-05",
    "lottery": "今彩539",
    "weight": 1,
    "color": "#d97706",
    "store": "仟佰萬投注站",
    "district": "桃園市新屋區",
    "lat": 24.968103,
    "lng": 121.072294
  },
  {
    "date": "2024/05/18",
    "month": "2024-05",
    "lottery": "今彩539",
    "weight": 1,
    "color": "#d97706",
    "store": "億州企業社",
    "district": "桃園市桃園區",
    "lat": 24.995152,
    "lng": 121.29819
  },
  {
    "date": "2024/05/18",
    "month": "2024-05",
    "lottery": "今彩539",
    "weight": 1,
    "color": "#d97706",
    "store": "隆中獎彩券行",
    "district": "新北市永和區",
    "lat": 25.013513,
    "lng": 121.515028
  },
  {
    "date": "2024/05/21",
    "month": "2024-05",
    "lottery": "大樂透",
    "weight": 2,
    "color": "#fbbf24",
    "store": "星好運商行",
    "district": "新竹市北區",
    "lat": 24.817625,
    "lng": 120.951509
  },
  {
    "date": "2024/05/22",
    "month": "2024-05",
    "lottery": "今彩539",
    "weight": 1,
    "color": "#d97706",
    "store": "好運發彩券行",
    "district": "新北市蘆洲區",
    "lat": 25.096098,
    "lng": 121.47594
  },
  {
    "date": "2024/05/24",
    "month": "2024-05",
    "lottery": "今彩539",
    "weight": 1,
    "color": "#d97706",
    "store": "旺鴻彩券行",
    "district": "桃園市龜山區",
    "lat": 25.025489,
    "lng": 121.365497
  },
  {
    "date": "2024/05/25",
    "month": "2024-05",
    "lottery": "今彩539",
    "weight": 1,
    "color": "#d97706",
    "store": "慧溋彩券行",
    "district": "南投縣埔里鎮",
    "lat": 23.966903,
    "lng": 120.968288
  },
  {
    "date": "2024/05/25",
    "month": "2024-05",
    "lottery": "今彩539",
    "weight": 1,
    "color": "#d97706",
    "store": "亮亮彩券行",
    "district": "臺中市北屯區",
    "lat": 24.178931,
    "lng": 120.739778
  },
  {
    "date": "2024/05/27",
    "month": "2024-05",
    "lottery": "今彩539",
    "weight": 1,
    "color": "#d97706",
    "store": "福運彩券行",
    "district": "臺北市大同區",
    "lat": 25.064035,
    "lng": 121.508044
  },
  {
    "date": "2024/05/27",
    "month": "2024-05",
    "lottery": "今彩539",
    "weight": 1,
    "color": "#d97706",
    "store": "宗裕彩券行",
    "district": "臺南市安南區",
    "lat": 23.052463,
    "lng": 120.166376
  },
  {
    "date": "2024/05/28",
    "month": "2024-05",
    "lottery": "大樂透",
    "weight": 2,
    "color": "#fbbf24",
    "store": "熊福氣彩券行",
    "district": "彰化縣和美鎮",
    "lat": 24.111796,
    "lng": 120.5077
  },
  {
    "date": "2024/05/31",
    "month": "2024-05",
    "lottery": "今彩539",
    "weight": 1,
    "color": "#d97706",
    "store": "運錸彩券行",
    "district": "臺北市大同區",
    "lat": 25.064035,
    "lng": 121.508044
  },
  {
    "date": "2024/06/03",
    "month": "2024-06",
    "lottery": "今彩539",
    "weight": 1,
    "color": "#d97706",
    "store": "德民彩券行",
    "district": "高雄市楠梓區",
    "lat": 22.723949,
    "lng": 120.30416
  },
  {
    "date": "2024/06/03",
    "month": "2024-06",
    "lottery": "今彩539",
    "weight": 1,
    "color": "#d97706",
    "store": "兆財彩券行",
    "district": "臺北市萬華區",
    "lat": 25.027216,
    "lng": 121.494583
  },
  {
    "date": "2024/06/03",
    "month": "2024-06",
    "lottery": "今彩539",
    "weight": 1,
    "color": "#d97706",
    "store": "增富彩券行",
    "district": "新北市瑞芳區",
    "lat": 25.102735,
    "lng": 121.832507
  },
  {
    "date": "2024/06/04",
    "month": "2024-06",
    "lottery": "今彩539",
    "weight": 1,
    "color": "#d97706",
    "store": "金興彩券行",
    "district": "宜蘭縣冬山鄉",
    "lat": 24.645122,
    "lng": 121.754215
  },
  {
    "date": "2024/06/06",
    "month": "2024-06",
    "lottery": "今彩539",
    "weight": 1,
    "color": "#d97706",
    "store": "億竹發彩券行",
    "district": "嘉義縣義竹鄉",
    "lat": 23.34722,
    "lng": 120.228245
  },
  {
    "date": "2024/06/07",
    "month": "2024-06",
    "lottery": "大樂透",
    "weight": 2,
    "color": "#fbbf24",
    "store": "盈多多彩券行",
    "district": "新竹縣竹東鎮",
    "lat": 24.723947,
    "lng": 121.073933
  },
  {
    "date": "2024/06/07",
    "month": "2024-06",
    "lottery": "今彩539",
    "weight": 1,
    "color": "#d97706",
    "store": "鉅鑫投注站",
    "district": "新北市板橋區",
    "lat": 25.013664,
    "lng": 121.469232
  },
  {
    "date": "2024/06/07",
    "month": "2024-06",
    "lottery": "今彩539",
    "weight": 1,
    "color": "#d97706",
    "store": "灰姑娘商行",
    "district": "高雄市左營區",
    "lat": 22.682266,
    "lng": 120.292526
  },
  {
    "date": "2024/06/08",
    "month": "2024-06",
    "lottery": "今彩539",
    "weight": 1,
    "color": "#d97706",
    "store": "尚發投注站",
    "district": "桃園市大園區",
    "lat": 25.051397,
    "lng": 121.213514
  },
  {
    "date": "2024/06/10",
    "month": "2024-06",
    "lottery": "今彩539",
    "weight": 1,
    "color": "#d97706",
    "store": "龍豪彩券行",
    "district": "花蓮縣吉安鄉",
    "lat": 23.961897,
    "lng": 121.565469
  },
  {
    "date": "2024/06/10",
    "month": "2024-06",
    "lottery": "今彩539",
    "weight": 1,
    "color": "#d97706",
    "store": "五路金財神彩券行",
    "district": "新北市金山區",
    "lat": 25.198877,
    "lng": 121.589311
  },
  {
    "date": "2024/06/10",
    "month": "2024-06",
    "lottery": "今彩539",
    "weight": 1,
    "color": "#d97706",
    "store": "財鑫旺彩券行",
    "district": "南投縣埔里鎮",
    "lat": 23.966903,
    "lng": 120.968288
  },
  {
    "date": "2024/06/10",
    "month": "2024-06",
    "lottery": "今彩539",
    "weight": 1,
    "color": "#d97706",
    "store": "金財神彩券商行",
    "district": "新北市三峽區",
    "lat": 24.878212,
    "lng": 121.413448
  },
  {
    "date": "2024/06/11",
    "month": "2024-06",
    "lottery": "大樂透",
    "weight": 2,
    "color": "#fbbf24",
    "store": "億起旺彩券行",
    "district": "高雄市前鎮區",
    "lat": 22.586927,
    "lng": 120.315793
  },
  {
    "date": "2024/06/12",
    "month": "2024-06",
    "lottery": "今彩539",
    "weight": 1,
    "color": "#d97706",
    "store": "鑫億興彩券行",
    "district": "臺南市仁德區",
    "lat": 22.940175,
    "lng": 120.24318
  },
  {
    "date": "2024/06/13",
    "month": "2024-06",
    "lottery": "今彩539",
    "weight": 1,
    "color": "#d97706",
    "store": "仟億彩券行",
    "district": "臺中市后里區",
    "lat": 24.315585,
    "lng": 120.719105
  },
  {
    "date": "2024/06/13",
    "month": "2024-06",
    "lottery": "威力彩",
    "weight": 3,
    "color": "#ff6b35",
    "store": "金沙彩券行",
    "district": "桃園市中壢區",
    "lat": 24.985917,
    "lng": 121.211701
  },
  {
    "date": "2024/06/14",
    "month": "2024-06",
    "lottery": "今彩539",
    "weight": 1,
    "color": "#d97706",
    "store": "壹柒捌彩券行",
    "district": "雲林縣斗六市",
    "lat": 23.699892,
    "lng": 120.571829
  },
  {
    "date": "2024/06/15",
    "month": "2024-06",
    "lottery": "今彩539",
    "weight": 1,
    "color": "#d97706",
    "store": "聯發彩券行",
    "district": "臺南市歸仁區",
    "lat": 22.946018,
    "lng": 120.295788
  },
  {
    "date": "2024/06/15",
    "month": "2024-06",
    "lottery": "今彩539",
    "weight": 1,
    "color": "#d97706",
    "store": "聯發彩券行",
    "district": "臺南市歸仁區",
    "lat": 22.946018,
    "lng": 120.295788
  },
  {
    "date": "2024/06/19",
    "month": "2024-06",
    "lottery": "今彩539",
    "weight": 1,
    "color": "#d97706",
    "store": "幸福久久彩券行",
    "district": "雲林縣斗六市",
    "lat": 23.699892,
    "lng": 120.571829
  },
  {
    "date": "2024/06/19",
    "month": "2024-06",
    "lottery": "今彩539",
    "weight": 1,
    "color": "#d97706",
    "store": "聯鑫投注站",
    "district": "基隆市仁愛區",
    "lat": 25.117223,
    "lng": 121.742728
  },
  {
    "date": "2024/06/20",
    "month": "2024-06",
    "lottery": "今彩539",
    "weight": 1,
    "color": "#d97706",
    "store": "壹陸發彩券行",
    "district": "雲林縣虎尾鎮",
    "lat": 23.713535,
    "lng": 120.431709
  },
  {
    "date": "2024/06/21",
    "month": "2024-06",
    "lottery": "大樂透",
    "weight": 2,
    "color": "#fbbf24",
    "store": "客來旺彩券行",
    "district": "高雄市三民區",
    "lat": 22.656204,
    "lng": 120.320193
  },
  {
    "date": "2024/06/21",
    "month": "2024-06",
    "lottery": "今彩539",
    "weight": 1,
    "color": "#d97706",
    "store": "超富鑫商行",
    "district": "新竹縣新埔鎮",
    "lat": 24.841404,
    "lng": 121.096789
  },
  {
    "date": "2024/06/21",
    "month": "2024-06",
    "lottery": "今彩539",
    "weight": 1,
    "color": "#d97706",
    "store": "中億你彩券行",
    "district": "臺南市安南區",
    "lat": 23.052463,
    "lng": 120.166376
  },
  {
    "date": "2024/06/24",
    "month": "2024-06",
    "lottery": "今彩539",
    "weight": 1,
    "color": "#d97706",
    "store": "大瀚投注站",
    "district": "新北市新店區",
    "lat": 24.930194,
    "lng": 121.532843
  },
  {
    "date": "2024/06/25",
    "month": "2024-06",
    "lottery": "今彩539",
    "weight": 1,
    "color": "#d97706",
    "store": "金蘋果企業社",
    "district": "高雄市鳳山區",
    "lat": 22.610643,
    "lng": 120.353508
  },
  {
    "date": "2024/06/25",
    "month": "2024-06",
    "lottery": "今彩539",
    "weight": 1,
    "color": "#d97706",
    "store": "億展投注站",
    "district": "金門縣金城鎮",
    "lat": 24.413126,
    "lng": 118.312587
  },
  {
    "date": "2024/06/26",
    "month": "2024-06",
    "lottery": "今彩539",
    "weight": 1,
    "color": "#d97706",
    "store": "金冠滿載彩券行",
    "district": "臺中市東勢區",
    "lat": 24.254962,
    "lng": 120.838902
  },
  {
    "date": "2024/06/28",
    "month": "2024-06",
    "lottery": "今彩539",
    "weight": 1,
    "color": "#d97706",
    "store": "億萬錸彩券行",
    "district": "宜蘭縣冬山鄉",
    "lat": 24.645122,
    "lng": 121.754215
  },
  {
    "date": "2024/07/04",
    "month": "2024-07",
    "lottery": "今彩539",
    "weight": 1,
    "color": "#d97706",
    "store": "黃金萬兩彩券行",
    "district": "臺北市中正區",
    "lat": 25.02091,
    "lng": 121.523911
  },
  {
    "date": "2024/07/06",
    "month": "2024-07",
    "lottery": "今彩539",
    "weight": 1,
    "color": "#d97706",
    "store": "鸚哥亮彩券行",
    "district": "新北市三重區",
    "lat": 25.064196,
    "lng": 121.496572
  },
  {
    "date": "2024/07/11",
    "month": "2024-07",
    "lottery": "今彩539",
    "weight": 1,
    "color": "#d97706",
    "store": "真會中彩券行",
    "district": "新北市土城區",
    "lat": 24.96641,
    "lng": 121.448583
  },
  {
    "date": "2024/07/12",
    "month": "2024-07",
    "lottery": "今彩539",
    "weight": 1,
    "color": "#d97706",
    "store": "大家贏投注站",
    "district": "新北市新店區",
    "lat": 24.930194,
    "lng": 121.532843
  },
  {
    "date": "2024/07/12",
    "month": "2024-07",
    "lottery": "今彩539",
    "weight": 1,
    "color": "#d97706",
    "store": "金發財彩券行",
    "district": "花蓮縣花蓮市",
    "lat": 23.998119,
    "lng": 121.600945
  },
  {
    "date": "2024/07/13",
    "month": "2024-07",
    "lottery": "今彩539",
    "weight": 1,
    "color": "#d97706",
    "store": "鑫旺來彩券行",
    "district": "新北市淡水區",
    "lat": 25.168258,
    "lng": 121.482692
  },
  {
    "date": "2024/07/13",
    "month": "2024-07",
    "lottery": "今彩539",
    "weight": 1,
    "color": "#d97706",
    "store": "嘉贏彩券行",
    "district": "臺北市文山區",
    "lat": 24.995642,
    "lng": 121.574177
  },
  {
    "date": "2024/07/13",
    "month": "2024-07",
    "lottery": "今彩539",
    "weight": 1,
    "color": "#d97706",
    "store": "六六六台彩行",
    "district": "新北市淡水區",
    "lat": 25.168258,
    "lng": 121.482692
  },
  {
    "date": "2024/07/15",
    "month": "2024-07",
    "lottery": "今彩539",
    "weight": 1,
    "color": "#d97706",
    "store": "旺德福公益彩券",
    "district": "屏東縣東港鎮",
    "lat": 22.465407,
    "lng": 120.480288
  },
  {
    "date": "2024/07/15",
    "month": "2024-07",
    "lottery": "今彩539",
    "weight": 1,
    "color": "#d97706",
    "store": "雙立發彩券行",
    "district": "臺北市中正區",
    "lat": 25.02091,
    "lng": 121.523911
  },
  {
    "date": "2024/07/15",
    "month": "2024-07",
    "lottery": "今彩539",
    "weight": 1,
    "color": "#d97706",
    "store": "大众發投注站",
    "district": "新北市新莊區",
    "lat": 25.035566,
    "lng": 121.427788
  },
  {
    "date": "2024/07/15",
    "month": "2024-07",
    "lottery": "今彩539",
    "weight": 1,
    "color": "#d97706",
    "store": "贏滿滿彩券行",
    "district": "新北市板橋區",
    "lat": 25.013664,
    "lng": 121.469232
  },
  {
    "date": "2024/07/17",
    "month": "2024-07",
    "lottery": "今彩539",
    "weight": 1,
    "color": "#d97706",
    "store": "億竹發彩券行",
    "district": "嘉義縣義竹鄉",
    "lat": 23.34722,
    "lng": 120.228245
  },
  {
    "date": "2024/07/18",
    "month": "2024-07",
    "lottery": "今彩539",
    "weight": 1,
    "color": "#d97706",
    "store": "金得億彩券行",
    "district": "新北市板橋區",
    "lat": 25.013664,
    "lng": 121.469232
  },
  {
    "date": "2024/07/18",
    "month": "2024-07",
    "lottery": "今彩539",
    "weight": 1,
    "color": "#d97706",
    "store": "好運源來彩券行",
    "district": "屏東縣屏東市",
    "lat": 22.666038,
    "lng": 120.487866
  },
  {
    "date": "2024/07/18",
    "month": "2024-07",
    "lottery": "今彩539",
    "weight": 1,
    "color": "#d97706",
    "store": "阿億國彩券行",
    "district": "桃園市龜山區",
    "lat": 25.025489,
    "lng": 121.365497
  },
  {
    "date": "2024/07/18",
    "month": "2024-07",
    "lottery": "今彩539",
    "weight": 1,
    "color": "#d97706",
    "store": "神來富企業社",
    "district": "桃園市中壢區",
    "lat": 24.985917,
    "lng": 121.211701
  },
  {
    "date": "2024/07/19",
    "month": "2024-07",
    "lottery": "今彩539",
    "weight": 1,
    "color": "#d97706",
    "store": "旺萊旺彩券行",
    "district": "臺中市中區",
    "lat": 24.140894,
    "lng": 120.682992
  },
  {
    "date": "2024/07/22",
    "month": "2024-07",
    "lottery": "今彩539",
    "weight": 1,
    "color": "#d97706",
    "store": "億萬來彩券行",
    "district": "新北市板橋區",
    "lat": 25.013664,
    "lng": 121.469232
  },
  {
    "date": "2024/07/22",
    "month": "2024-07",
    "lottery": "今彩539",
    "weight": 1,
    "color": "#d97706",
    "store": "福贏投注站",
    "district": "新北市新莊區",
    "lat": 25.035566,
    "lng": 121.427788
  },
  {
    "date": "2024/07/23",
    "month": "2024-07",
    "lottery": "今彩539",
    "weight": 1,
    "color": "#d97706",
    "store": "鑫聚富彩券行",
    "district": "臺中市大里區",
    "lat": 24.099008,
    "lng": 120.709811
  },
  {
    "date": "2024/07/23",
    "month": "2024-07",
    "lottery": "今彩539",
    "weight": 1,
    "color": "#d97706",
    "store": "順風發投注站",
    "district": "桃園市桃園區",
    "lat": 24.995152,
    "lng": 121.29819
  },
  {
    "date": "2024/07/24",
    "month": "2024-07",
    "lottery": "今彩539",
    "weight": 1,
    "color": "#d97706",
    "store": "真正旺投注站",
    "district": "桃園市蘆竹區",
    "lat": 25.059232,
    "lng": 121.291827
  },
  {
    "date": "2024/07/24",
    "month": "2024-07",
    "lottery": "今彩539",
    "weight": 1,
    "color": "#d97706",
    "store": "順心彩券行",
    "district": "新北市新莊區",
    "lat": 25.035566,
    "lng": 121.427788
  },
  {
    "date": "2024/07/26",
    "month": "2024-07",
    "lottery": "今彩539",
    "weight": 1,
    "color": "#d97706",
    "store": "鴻維彩券行",
    "district": "彰化縣員林市",
    "lat": 23.959014,
    "lng": 120.598976
  },
  {
    "date": "2024/07/26",
    "month": "2024-07",
    "lottery": "大樂透",
    "weight": 2,
    "color": "#fbbf24",
    "store": "中興彩券行",
    "district": "屏東縣內埔鄉",
    "lat": 22.641702,
    "lng": 120.594724
  },
  {
    "date": "2024/07/27",
    "month": "2024-07",
    "lottery": "今彩539",
    "weight": 1,
    "color": "#d97706",
    "store": "勝利旺彩券行",
    "district": "屏東縣屏東市",
    "lat": 22.666038,
    "lng": 120.487866
  },
  {
    "date": "2024/07/27",
    "month": "2024-07",
    "lottery": "今彩539",
    "weight": 1,
    "color": "#d97706",
    "store": "旺樂多彩券行",
    "district": "臺東縣臺東市",
    "lat": 22.762801,
    "lng": 121.113429
  },
  {
    "date": "2024/07/29",
    "month": "2024-07",
    "lottery": "威力彩",
    "weight": 3,
    "color": "#ff6b35",
    "store": "五路財神電腦彩券行",
    "district": "基隆市仁愛區",
    "lat": 25.117223,
    "lng": 121.742728
  },
  {
    "date": "2024/07/30",
    "month": "2024-07",
    "lottery": "今彩539",
    "weight": 1,
    "color": "#d97706",
    "store": "金豪中彩券行",
    "district": "高雄市岡山區",
    "lat": 22.805285,
    "lng": 120.3012
  },
  {
    "date": "2024/07/30",
    "month": "2024-07",
    "lottery": "今彩539",
    "weight": 1,
    "color": "#d97706",
    "store": "夢想家彩券行",
    "district": "臺南市仁德區",
    "lat": 22.940175,
    "lng": 120.24318
  },
  {
    "date": "2024/07/31",
    "month": "2024-07",
    "lottery": "今彩539",
    "weight": 1,
    "color": "#d97706",
    "store": "財運亨通彩券行",
    "district": "新北市鶯歌區",
    "lat": 24.961315,
    "lng": 121.343942
  },
  {
    "date": "2024/08/06",
    "month": "2024-08",
    "lottery": "今彩539",
    "weight": 1,
    "color": "#d97706",
    "store": "全穎彩券行",
    "district": "臺中市豐原區",
    "lat": 24.243531,
    "lng": 120.736599
  },
  {
    "date": "2024/08/08",
    "month": "2024-08",
    "lottery": "今彩539",
    "weight": 1,
    "color": "#d97706",
    "store": "大鑫埔里彩券行",
    "district": "南投縣埔里鎮",
    "lat": 23.966903,
    "lng": 120.968288
  },
  {
    "date": "2024/08/08",
    "month": "2024-08",
    "lottery": "今彩539",
    "weight": 1,
    "color": "#d97706",
    "store": "富興發彩券行",
    "district": "高雄市前鎮區",
    "lat": 22.586927,
    "lng": 120.315793
  },
  {
    "date": "2024/08/09",
    "month": "2024-08",
    "lottery": "今彩539",
    "weight": 1,
    "color": "#d97706",
    "store": "福德發彩券行",
    "district": "屏東縣內埔鄉",
    "lat": 22.641702,
    "lng": 120.594724
  },
  {
    "date": "2024/08/09",
    "month": "2024-08",
    "lottery": "今彩539",
    "weight": 1,
    "color": "#d97706",
    "store": "和樂發投注站",
    "district": "臺北市中山區",
    "lat": 25.07105,
    "lng": 121.541764
  },
  {
    "date": "2024/08/09",
    "month": "2024-08",
    "lottery": "今彩539",
    "weight": 1,
    "color": "#d97706",
    "store": "穩發彩券行",
    "district": "臺南市新營區",
    "lat": 23.309858,
    "lng": 120.298955
  },
  {
    "date": "2024/08/09",
    "month": "2024-08",
    "lottery": "今彩539",
    "weight": 1,
    "color": "#d97706",
    "store": "鑫順義彩券行",
    "district": "臺北市北投區",
    "lat": 25.166155,
    "lng": 121.517083
  },
  {
    "date": "2024/08/09",
    "month": "2024-08",
    "lottery": "今彩539",
    "weight": 1,
    "color": "#d97706",
    "store": "錢虎錢來也彩券行",
    "district": "臺北市中正區",
    "lat": 25.02091,
    "lng": 121.523911
  },
  {
    "date": "2024/08/10",
    "month": "2024-08",
    "lottery": "今彩539",
    "weight": 1,
    "color": "#d97706",
    "store": "一路大發彩券投注商行",
    "district": "臺北市內湖區",
    "lat": 25.088013,
    "lng": 121.610094
  },
  {
    "date": "2024/08/10",
    "month": "2024-08",
    "lottery": "今彩539",
    "weight": 1,
    "color": "#d97706",
    "store": "金福德彩券行",
    "district": "臺中市南區",
    "lat": 24.119227,
    "lng": 120.665638
  },
  {
    "date": "2024/08/10",
    "month": "2024-08",
    "lottery": "今彩539",
    "weight": 1,
    "color": "#d97706",
    "store": "興旺發彩券行",
    "district": "臺中市西屯區",
    "lat": 24.182215,
    "lng": 120.627593
  },
  {
    "date": "2024/08/13",
    "month": "2024-08",
    "lottery": "今彩539",
    "weight": 1,
    "color": "#d97706",
    "store": "聚財發商行",
    "district": "臺中市北屯區",
    "lat": 24.178931,
    "lng": 120.739778
  },
  {
    "date": "2024/08/14",
    "month": "2024-08",
    "lottery": "今彩539",
    "weight": 1,
    "color": "#d97706",
    "store": "七福財神彩券行",
    "district": "臺北市中山區",
    "lat": 25.07105,
    "lng": 121.541764
  },
  {
    "date": "2024/08/17",
    "month": "2024-08",
    "lottery": "今彩539",
    "weight": 1,
    "color": "#d97706",
    "store": "連勝彩券行",
    "district": "新北市中和區",
    "lat": 24.993918,
    "lng": 121.494671
  },
  {
    "date": "2024/08/19",
    "month": "2024-08",
    "lottery": "今彩539",
    "weight": 1,
    "color": "#d97706",
    "store": "來億彩券行",
    "district": "嘉義縣大林鎮",
    "lat": 23.595684,
    "lng": 120.478443
  },
  {
    "date": "2024/08/21",
    "month": "2024-08",
    "lottery": "今彩539",
    "weight": 1,
    "color": "#d97706",
    "store": "億來發投注站",
    "district": "桃園市蘆竹區",
    "lat": 25.059232,
    "lng": 121.291827
  },
  {
    "date": "2024/08/22",
    "month": "2024-08",
    "lottery": "今彩539",
    "weight": 1,
    "color": "#d97706",
    "store": "鴻富發彩券行",
    "district": "桃園市蘆竹區",
    "lat": 25.059232,
    "lng": 121.291827
  },
  {
    "date": "2024/08/23",
    "month": "2024-08",
    "lottery": "今彩539",
    "weight": 1,
    "color": "#d97706",
    "store": "永慶彩券行",
    "district": "臺北市內湖區",
    "lat": 25.088013,
    "lng": 121.610094
  },
  {
    "date": "2024/08/23",
    "month": "2024-08",
    "lottery": "今彩539",
    "weight": 1,
    "color": "#d97706",
    "store": "好旺利彩券行",
    "district": "高雄市左營區",
    "lat": 22.682266,
    "lng": 120.292526
  },
  {
    "date": "2024/08/23",
    "month": "2024-08",
    "lottery": "今彩539",
    "weight": 1,
    "color": "#d97706",
    "store": "好旺利彩券行",
    "district": "高雄市左營區",
    "lat": 22.682266,
    "lng": 120.292526
  },
  {
    "date": "2024/08/23",
    "month": "2024-08",
    "lottery": "今彩539",
    "weight": 1,
    "color": "#d97706",
    "store": "運豐興業行",
    "district": "臺北市內湖區",
    "lat": 25.088013,
    "lng": 121.610094
  },
  {
    "date": "2024/08/23",
    "month": "2024-08",
    "lottery": "大樂透",
    "weight": 2,
    "color": "#fbbf24",
    "store": "喜喜公益彩券行",
    "district": "臺中市太平區",
    "lat": 24.104296,
    "lng": 120.783748
  },
  {
    "date": "2024/08/24",
    "month": "2024-08",
    "lottery": "今彩539",
    "weight": 1,
    "color": "#d97706",
    "store": "富多來彩券行",
    "district": "高雄市林園區",
    "lat": 22.516342,
    "lng": 120.385677
  },
  {
    "date": "2024/08/24",
    "month": "2024-08",
    "lottery": "今彩539",
    "weight": 1,
    "color": "#d97706",
    "store": "好運多彩券行",
    "district": "臺北市北投區",
    "lat": 25.166155,
    "lng": 121.517083
  },
  {
    "date": "2024/08/28",
    "month": "2024-08",
    "lottery": "今彩539",
    "weight": 1,
    "color": "#d97706",
    "store": "好運連發商行",
    "district": "臺北市士林區",
    "lat": 25.133585,
    "lng": 121.549819
  },
  {
    "date": "2024/08/28",
    "month": "2024-08",
    "lottery": "今彩539",
    "weight": 1,
    "color": "#d97706",
    "store": "金來來彩券行",
    "district": "高雄市楠梓區",
    "lat": 22.723949,
    "lng": 120.30416
  },
  {
    "date": "2024/08/31",
    "month": "2024-08",
    "lottery": "今彩539",
    "weight": 1,
    "color": "#d97706",
    "store": "錢上億彩券行",
    "district": "臺北市中山區",
    "lat": 25.07105,
    "lng": 121.541764
  },
  {
    "date": "2024/09/04",
    "month": "2024-09",
    "lottery": "今彩539",
    "weight": 1,
    "color": "#d97706",
    "store": "樂福彩彩券行",
    "district": "新北市板橋區",
    "lat": 25.013664,
    "lng": 121.469232
  },
  {
    "date": "2024/09/04",
    "month": "2024-09",
    "lottery": "今彩539",
    "weight": 1,
    "color": "#d97706",
    "store": "美龍彩券行",
    "district": "高雄市小港區",
    "lat": 22.554614,
    "lng": 120.37014
  },
  {
    "date": "2024/09/06",
    "month": "2024-09",
    "lottery": "今彩539",
    "weight": 1,
    "color": "#d97706",
    "store": "大順旺彩券行",
    "district": "屏東縣屏東市",
    "lat": 22.666038,
    "lng": 120.487866
  },
  {
    "date": "2024/09/07",
    "month": "2024-09",
    "lottery": "今彩539",
    "weight": 1,
    "color": "#d97706",
    "store": "國賓彩券行",
    "district": "雲林縣虎尾鎮",
    "lat": 23.713535,
    "lng": 120.431709
  },
  {
    "date": "2024/09/09",
    "month": "2024-09",
    "lottery": "今彩539",
    "weight": 1,
    "color": "#d97706",
    "store": "來得富彩券行",
    "district": "屏東縣潮州鎮",
    "lat": 22.541624,
    "lng": 120.547841
  },
  {
    "date": "2024/09/09",
    "month": "2024-09",
    "lottery": "今彩539",
    "weight": 1,
    "color": "#d97706",
    "store": "供億彩券行",
    "district": "彰化縣員林市",
    "lat": 23.959014,
    "lng": 120.598976
  },
  {
    "date": "2024/09/09",
    "month": "2024-09",
    "lottery": "今彩539",
    "weight": 1,
    "color": "#d97706",
    "store": "鑫好運彩券行",
    "district": "嘉義縣朴子市",
    "lat": 23.441659,
    "lng": 120.253428
  },
  {
    "date": "2024/09/09",
    "month": "2024-09",
    "lottery": "今彩539",
    "weight": 1,
    "color": "#d97706",
    "store": "金多財彩券行",
    "district": "臺中市南屯區",
    "lat": 24.143813,
    "lng": 120.616627
  },
  {
    "date": "2024/09/09",
    "month": "2024-09",
    "lottery": "今彩539",
    "weight": 1,
    "color": "#d97706",
    "store": "供億彩券行",
    "district": "彰化縣員林市",
    "lat": 23.959014,
    "lng": 120.598976
  },
  {
    "date": "2024/09/09",
    "month": "2024-09",
    "lottery": "今彩539",
    "weight": 1,
    "color": "#d97706",
    "store": "第一家彩券行",
    "district": "桃園市桃園區",
    "lat": 24.995152,
    "lng": 121.29819
  },
  {
    "date": "2024/09/10",
    "month": "2024-09",
    "lottery": "今彩539",
    "weight": 1,
    "color": "#d97706",
    "store": "迎前彩券行",
    "district": "桃園市蘆竹區",
    "lat": 25.059232,
    "lng": 121.291827
  },
  {
    "date": "2024/09/10",
    "month": "2024-09",
    "lottery": "今彩539",
    "weight": 1,
    "color": "#d97706",
    "store": "沅亨商行",
    "district": "桃園市大溪區",
    "lat": 24.868969,
    "lng": 121.301637
  },
  {
    "date": "2024/09/10",
    "month": "2024-09",
    "lottery": "今彩539",
    "weight": 1,
    "color": "#d97706",
    "store": "喜喜公益彩券行",
    "district": "臺中市太平區",
    "lat": 24.104296,
    "lng": 120.783748
  },
  {
    "date": "2024/09/10",
    "month": "2024-09",
    "lottery": "今彩539",
    "weight": 1,
    "color": "#d97706",
    "store": "財圓彩券行",
    "district": "花蓮縣吉安鄉",
    "lat": 23.961897,
    "lng": 121.565469
  },
  {
    "date": "2024/09/10",
    "month": "2024-09",
    "lottery": "今彩539",
    "weight": 1,
    "color": "#d97706",
    "store": "飛來富二六八彩券行",
    "district": "臺北市大安區",
    "lat": 25.026843,
    "lng": 121.546874
  },
  {
    "date": "2024/09/10",
    "month": "2024-09",
    "lottery": "今彩539",
    "weight": 1,
    "color": "#d97706",
    "store": "鴻運旺彩券行",
    "district": "新竹市北區",
    "lat": 24.817625,
    "lng": 120.951509
  },
  {
    "date": "2024/09/11",
    "month": "2024-09",
    "lottery": "今彩539",
    "weight": 1,
    "color": "#d97706",
    "store": "珍珍彩券行",
    "district": "新北市蘆洲區",
    "lat": 25.096098,
    "lng": 121.47594
  },
  {
    "date": "2024/09/11",
    "month": "2024-09",
    "lottery": "今彩539",
    "weight": 1,
    "color": "#d97706",
    "store": "美夢成真彩券行",
    "district": "花蓮縣壽豐鄉",
    "lat": 23.840989,
    "lng": 121.532645
  },
  {
    "date": "2024/09/13",
    "month": "2024-09",
    "lottery": "今彩539",
    "weight": 1,
    "color": "#d97706",
    "store": "來來來彩券行",
    "district": "雲林縣口湖鄉",
    "lat": 23.524654,
    "lng": 120.097452
  },
  {
    "date": "2024/09/13",
    "month": "2024-09",
    "lottery": "今彩539",
    "weight": 1,
    "color": "#d97706",
    "store": "招鑫來彩券行",
    "district": "新北市林口區",
    "lat": 25.090457,
    "lng": 121.37086
  },
  {
    "date": "2024/09/13",
    "month": "2024-09",
    "lottery": "今彩539",
    "weight": 1,
    "color": "#d97706",
    "store": "佰福彩券行",
    "district": "高雄市前金區",
    "lat": 22.625489,
    "lng": 120.294316
  },
  {
    "date": "2024/09/13",
    "month": "2024-09",
    "lottery": "今彩539",
    "weight": 1,
    "color": "#d97706",
    "store": "富盈彩券行",
    "district": "臺東縣臺東市",
    "lat": 22.762801,
    "lng": 121.113429
  },
  {
    "date": "2024/09/16",
    "month": "2024-09",
    "lottery": "今彩539",
    "weight": 1,
    "color": "#d97706",
    "store": "鑫富發商行",
    "district": "高雄市三民區",
    "lat": 22.656204,
    "lng": 120.320193
  },
  {
    "date": "2024/09/16",
    "month": "2024-09",
    "lottery": "今彩539",
    "weight": 1,
    "color": "#d97706",
    "store": "永在發彩券行",
    "district": "臺南市新化區",
    "lat": 23.038341,
    "lng": 120.342144
  },
  {
    "date": "2024/09/17",
    "month": "2024-09",
    "lottery": "今彩539",
    "weight": 1,
    "color": "#d97706",
    "store": "虹文投注站",
    "district": "桃園市龍潭區",
    "lat": 24.85531,
    "lng": 121.209406
  },
  {
    "date": "2024/09/23",
    "month": "2024-09",
    "lottery": "今彩539",
    "weight": 1,
    "color": "#d97706",
    "store": "金來發彩券行",
    "district": "新北市新莊區",
    "lat": 25.035566,
    "lng": 121.427788
  },
  {
    "date": "2024/09/24",
    "month": "2024-09",
    "lottery": "今彩539",
    "weight": 1,
    "color": "#d97706",
    "store": "金倉彩券行",
    "district": "新北市三重區",
    "lat": 25.064196,
    "lng": 121.496572
  },
  {
    "date": "2024/09/25",
    "month": "2024-09",
    "lottery": "今彩539",
    "weight": 1,
    "color": "#d97706",
    "store": "億倈多投注站",
    "district": "新北市三峽區",
    "lat": 24.878212,
    "lng": 121.413448
  },
  {
    "date": "2024/09/25",
    "month": "2024-09",
    "lottery": "今彩539",
    "weight": 1,
    "color": "#d97706",
    "store": "鑫富彩券行",
    "district": "高雄市鼓山區",
    "lat": 22.645232,
    "lng": 120.274918
  },
  {
    "date": "2024/09/26",
    "month": "2024-09",
    "lottery": "今彩539",
    "weight": 1,
    "color": "#d97706",
    "store": "慶彩中彩券行",
    "district": "新北市新店區",
    "lat": 24.930194,
    "lng": 121.532843
  },
  {
    "date": "2024/09/26",
    "month": "2024-09",
    "lottery": "今彩539",
    "weight": 1,
    "color": "#d97706",
    "store": "再興投注站",
    "district": "臺北市文山區",
    "lat": 24.995642,
    "lng": 121.574177
  },
  {
    "date": "2024/09/26",
    "month": "2024-09",
    "lottery": "今彩539",
    "weight": 1,
    "color": "#d97706",
    "store": "豐財商號",
    "district": "臺北市萬華區",
    "lat": 25.027216,
    "lng": 121.494583
  },
  {
    "date": "2024/09/26",
    "month": "2024-09",
    "lottery": "今彩539",
    "weight": 1,
    "color": "#d97706",
    "store": "贏兆金彩券行",
    "district": "臺北市大安區",
    "lat": 25.026843,
    "lng": 121.546874
  },
  {
    "date": "2024/09/26",
    "month": "2024-09",
    "lottery": "今彩539",
    "weight": 1,
    "color": "#d97706",
    "store": "豐財商號",
    "district": "臺北市萬華區",
    "lat": 25.027216,
    "lng": 121.494583
  },
  {
    "date": "2024/09/26",
    "month": "2024-09",
    "lottery": "今彩539",
    "weight": 1,
    "color": "#d97706",
    "store": "來旺彩券行",
    "district": "新北市板橋區",
    "lat": 25.013664,
    "lng": 121.469232
  },
  {
    "date": "2024/09/26",
    "month": "2024-09",
    "lottery": "今彩539",
    "weight": 1,
    "color": "#d97706",
    "store": "宜益彩券行",
    "district": "臺中市北屯區",
    "lat": 24.178931,
    "lng": 120.739778
  },
  {
    "date": "2024/09/26",
    "month": "2024-09",
    "lottery": "今彩539",
    "weight": 1,
    "color": "#d97706",
    "store": "宜益彩券行",
    "district": "臺中市北屯區",
    "lat": 24.178931,
    "lng": 120.739778
  },
  {
    "date": "2024/09/27",
    "month": "2024-09",
    "lottery": "今彩539",
    "weight": 1,
    "color": "#d97706",
    "store": "尚億彩券行",
    "district": "屏東縣內埔鄉",
    "lat": 22.641702,
    "lng": 120.594724
  },
  {
    "date": "2024/09/27",
    "month": "2024-09",
    "lottery": "今彩539",
    "weight": 1,
    "color": "#d97706",
    "store": "喜來發彩券行",
    "district": "屏東縣萬丹鄉",
    "lat": 22.583168,
    "lng": 120.482011
  },
  {
    "date": "2024/09/30",
    "month": "2024-09",
    "lottery": "今彩539",
    "weight": 1,
    "color": "#d97706",
    "store": "萊發彩券行",
    "district": "桃園市龜山區",
    "lat": 25.025489,
    "lng": 121.365497
  },
  {
    "date": "2024/09/30",
    "month": "2024-09",
    "lottery": "今彩539",
    "weight": 1,
    "color": "#d97706",
    "store": "鑫鑫財富彩券行",
    "district": "臺北市信義區",
    "lat": 25.023785,
    "lng": 121.56766
  },
  {
    "date": "2024/10/04",
    "month": "2024-10",
    "lottery": "大樂透",
    "weight": 2,
    "color": "#fbbf24",
    "store": "金財旺彩券行",
    "district": "臺南市安南區",
    "lat": 23.052463,
    "lng": 120.166376
  },
  {
    "date": "2024/10/04",
    "month": "2024-10",
    "lottery": "今彩539",
    "weight": 1,
    "color": "#d97706",
    "store": "金冠滿載彩券行",
    "district": "臺中市東勢區",
    "lat": 24.254962,
    "lng": 120.838902
  },
  {
    "date": "2024/10/04",
    "month": "2024-10",
    "lottery": "今彩539",
    "weight": 1,
    "color": "#d97706",
    "store": "金大亨彩券行",
    "district": "新北市林口區",
    "lat": 25.090457,
    "lng": 121.37086
  },
  {
    "date": "2024/10/05",
    "month": "2024-10",
    "lottery": "今彩539",
    "weight": 1,
    "color": "#d97706",
    "store": "元寶彩彩券行",
    "district": "高雄市三民區",
    "lat": 22.656204,
    "lng": 120.320193
  },
  {
    "date": "2024/10/08",
    "month": "2024-10",
    "lottery": "今彩539",
    "weight": 1,
    "color": "#d97706",
    "store": "運興彩券行",
    "district": "高雄市三民區",
    "lat": 22.656204,
    "lng": 120.320193
  },
  {
    "date": "2024/10/08",
    "month": "2024-10",
    "lottery": "今彩539",
    "weight": 1,
    "color": "#d97706",
    "store": "李品蓁彩券行",
    "district": "新北市三重區",
    "lat": 25.064196,
    "lng": 121.496572
  },
  {
    "date": "2024/10/10",
    "month": "2024-10",
    "lottery": "今彩539",
    "weight": 1,
    "color": "#d97706",
    "store": "都桑彩券行",
    "district": "新北市鶯歌區",
    "lat": 24.961315,
    "lng": 121.343942
  },
  {
    "date": "2024/10/10",
    "month": "2024-10",
    "lottery": "今彩539",
    "weight": 1,
    "color": "#d97706",
    "store": "旺到發彩券行",
    "district": "新北市中和區",
    "lat": 24.993918,
    "lng": 121.494671
  },
  {
    "date": "2024/10/11",
    "month": "2024-10",
    "lottery": "今彩539",
    "weight": 1,
    "color": "#d97706",
    "store": "鑫來發彩券行",
    "district": "彰化縣北斗鎮",
    "lat": 23.866053,
    "lng": 120.533939
  },
  {
    "date": "2024/10/12",
    "month": "2024-10",
    "lottery": "今彩539",
    "weight": 1,
    "color": "#d97706",
    "store": "揚眉彩券行",
    "district": "桃園市楊梅區",
    "lat": 24.916253,
    "lng": 121.123672
  },
  {
    "date": "2024/10/14",
    "month": "2024-10",
    "lottery": "今彩539",
    "weight": 1,
    "color": "#d97706",
    "store": "營東彩券社",
    "district": "宜蘭縣羅東鎮",
    "lat": 24.67789,
    "lng": 121.770253
  },
  {
    "date": "2024/10/15",
    "month": "2024-10",
    "lottery": "今彩539",
    "weight": 1,
    "color": "#d97706",
    "store": "金好中彩券行",
    "district": "新竹縣湖口鄉",
    "lat": 24.886389,
    "lng": 121.060227
  },
  {
    "date": "2024/10/17",
    "month": "2024-10",
    "lottery": "今彩539",
    "weight": 1,
    "color": "#d97706",
    "store": "上千投注站",
    "district": "臺北市信義區",
    "lat": 25.023785,
    "lng": 121.56766
  },
  {
    "date": "2024/10/22",
    "month": "2024-10",
    "lottery": "今彩539",
    "weight": 1,
    "color": "#d97706",
    "store": "您來發彩券行",
    "district": "桃園市龜山區",
    "lat": 25.025489,
    "lng": 121.365497
  },
  {
    "date": "2024/10/22",
    "month": "2024-10",
    "lottery": "今彩539",
    "weight": 1,
    "color": "#d97706",
    "store": "東財彩券行",
    "district": "高雄市鳳山區",
    "lat": 22.610643,
    "lng": 120.353508
  },
  {
    "date": "2024/10/22",
    "month": "2024-10",
    "lottery": "今彩539",
    "weight": 1,
    "color": "#d97706",
    "store": "喜來富彩券行",
    "district": "臺中市沙鹿區",
    "lat": 24.231531,
    "lng": 120.582453
  },
  {
    "date": "2024/10/23",
    "month": "2024-10",
    "lottery": "今彩539",
    "weight": 1,
    "color": "#d97706",
    "store": "億億來彩券行",
    "district": "桃園市中壢區",
    "lat": 24.985917,
    "lng": 121.211701
  },
  {
    "date": "2024/10/23",
    "month": "2024-10",
    "lottery": "今彩539",
    "weight": 1,
    "color": "#d97706",
    "store": "旺萊彩券行",
    "district": "臺南市關廟區",
    "lat": 22.948301,
    "lng": 120.34235
  },
  {
    "date": "2024/10/24",
    "month": "2024-10",
    "lottery": "今彩539",
    "weight": 1,
    "color": "#d97706",
    "store": "億來發彩券行",
    "district": "臺南市中西區",
    "lat": 22.998163,
    "lng": 120.186425
  },
  {
    "date": "2024/10/28",
    "month": "2024-10",
    "lottery": "今彩539",
    "weight": 1,
    "color": "#d97706",
    "store": "彩星寶投注站",
    "district": "嘉義縣竹崎鄉",
    "lat": 23.502646,
    "lng": 120.591968
  },
  {
    "date": "2024/10/28",
    "month": "2024-10",
    "lottery": "今彩539",
    "weight": 1,
    "color": "#d97706",
    "store": "照達商行",
    "district": "新竹市北區",
    "lat": 24.817625,
    "lng": 120.951509
  },
  {
    "date": "2024/10/28",
    "month": "2024-10",
    "lottery": "威力彩",
    "weight": 3,
    "color": "#ff6b35",
    "store": "萬客來彩券行",
    "district": "臺南市六甲區",
    "lat": 23.228266,
    "lng": 120.378036
  },
  {
    "date": "2024/10/29",
    "month": "2024-10",
    "lottery": "今彩539",
    "weight": 1,
    "color": "#d97706",
    "store": "盛豐彩券行",
    "district": "桃園市楊梅區",
    "lat": 24.916253,
    "lng": 121.123672
  },
  {
    "date": "2024/10/29",
    "month": "2024-10",
    "lottery": "今彩539",
    "weight": 1,
    "color": "#d97706",
    "store": "錢虎投注站",
    "district": "花蓮縣花蓮市",
    "lat": 23.998119,
    "lng": 121.600945
  },
  {
    "date": "2024/10/30",
    "month": "2024-10",
    "lottery": "今彩539",
    "weight": 1,
    "color": "#d97706",
    "store": "壹柒捌彩券行",
    "district": "雲林縣斗六市",
    "lat": 23.699892,
    "lng": 120.571829
  },
  {
    "date": "2024/11/01",
    "month": "2024-11",
    "lottery": "今彩539",
    "weight": 1,
    "color": "#d97706",
    "store": "錢錢錢樂透彩券行",
    "district": "新北市鶯歌區",
    "lat": 24.961315,
    "lng": 121.343942
  },
  {
    "date": "2024/11/05",
    "month": "2024-11",
    "lottery": "今彩539",
    "weight": 1,
    "color": "#d97706",
    "store": "樂樂發彩券行",
    "district": "新北市板橋區",
    "lat": 25.013664,
    "lng": 121.469232
  },
  {
    "date": "2024/11/06",
    "month": "2024-11",
    "lottery": "今彩539",
    "weight": 1,
    "color": "#d97706",
    "store": "旺勝彩券行",
    "district": "新北市新莊區",
    "lat": 25.035566,
    "lng": 121.427788
  },
  {
    "date": "2024/11/07",
    "month": "2024-11",
    "lottery": "今彩539",
    "weight": 1,
    "color": "#d97706",
    "store": "友友彩券行",
    "district": "臺北市中正區",
    "lat": 25.02091,
    "lng": 121.523911
  },
  {
    "date": "2024/11/07",
    "month": "2024-11",
    "lottery": "今彩539",
    "weight": 1,
    "color": "#d97706",
    "store": "合益投注站",
    "district": "臺北市內湖區",
    "lat": 25.088013,
    "lng": 121.610094
  },
  {
    "date": "2024/11/08",
    "month": "2024-11",
    "lottery": "今彩539",
    "weight": 1,
    "color": "#d97706",
    "store": "福成彩券行",
    "district": "桃園市桃園區",
    "lat": 24.995152,
    "lng": 121.29819
  },
  {
    "date": "2024/11/11",
    "month": "2024-11",
    "lottery": "今彩539",
    "weight": 1,
    "color": "#d97706",
    "store": "金富富彩券行",
    "district": "彰化縣鹿港鎮",
    "lat": 24.075748,
    "lng": 120.431393
  },
  {
    "date": "2024/11/11",
    "month": "2024-11",
    "lottery": "今彩539",
    "weight": 1,
    "color": "#d97706",
    "store": "有錢尚勇彩券行",
    "district": "臺中市霧峰區",
    "lat": 24.057827,
    "lng": 120.737643
  },
  {
    "date": "2024/11/12",
    "month": "2024-11",
    "lottery": "今彩539",
    "weight": 1,
    "color": "#d97706",
    "store": "福氣滿滿彩券行",
    "district": "臺北市中正區",
    "lat": 25.02091,
    "lng": 121.523911
  },
  {
    "date": "2024/11/12",
    "month": "2024-11",
    "lottery": "大樂透",
    "weight": 2,
    "color": "#fbbf24",
    "store": "中太多彩券行",
    "district": "桃園市觀音區",
    "lat": 25.01911,
    "lng": 121.1106
  },
  {
    "date": "2024/11/13",
    "month": "2024-11",
    "lottery": "今彩539",
    "weight": 1,
    "color": "#d97706",
    "store": "財神豪彩券行",
    "district": "屏東縣屏東市",
    "lat": 22.666038,
    "lng": 120.487866
  },
  {
    "date": "2024/11/14",
    "month": "2024-11",
    "lottery": "今彩539",
    "weight": 1,
    "color": "#d97706",
    "store": "希旺彩券行",
    "district": "新北市中和區",
    "lat": 24.993918,
    "lng": 121.494671
  },
  {
    "date": "2024/11/14",
    "month": "2024-11",
    "lottery": "今彩539",
    "weight": 1,
    "color": "#d97706",
    "store": "希旺彩券行",
    "district": "新北市中和區",
    "lat": 24.993918,
    "lng": 121.494671
  },
  {
    "date": "2024/11/16",
    "month": "2024-11",
    "lottery": "今彩539",
    "weight": 1,
    "color": "#d97706",
    "store": "鑫同榮彩券行",
    "district": "臺中市北屯區",
    "lat": 24.178931,
    "lng": 120.739778
  },
  {
    "date": "2024/11/19",
    "month": "2024-11",
    "lottery": "今彩539",
    "weight": 1,
    "color": "#d97706",
    "store": "百中彩券行",
    "district": "新北市中和區",
    "lat": 24.993918,
    "lng": 121.494671
  },
  {
    "date": "2024/11/20",
    "month": "2024-11",
    "lottery": "今彩539",
    "weight": 1,
    "color": "#d97706",
    "store": "雄旺彩券行",
    "district": "高雄市岡山區",
    "lat": 22.805285,
    "lng": 120.3012
  },
  {
    "date": "2024/11/22",
    "month": "2024-11",
    "lottery": "今彩539",
    "weight": 1,
    "color": "#d97706",
    "store": "和順發彩券行",
    "district": "雲林縣崙背鄉",
    "lat": 23.769062,
    "lng": 120.334865
  },
  {
    "date": "2024/11/22",
    "month": "2024-11",
    "lottery": "今彩539",
    "weight": 1,
    "color": "#d97706",
    "store": "泓嘉商行",
    "district": "苗栗縣頭份市",
    "lat": 24.676809,
    "lng": 120.925355
  },
  {
    "date": "2024/11/22",
    "month": "2024-11",
    "lottery": "今彩539",
    "weight": 1,
    "color": "#d97706",
    "store": "幸運鑫彩券行",
    "district": "臺東縣臺東市",
    "lat": 22.762801,
    "lng": 121.113429
  },
  {
    "date": "2024/11/26",
    "month": "2024-11",
    "lottery": "今彩539",
    "weight": 1,
    "color": "#d97706",
    "store": "李師父彩券行",
    "district": "臺中市西區",
    "lat": 24.147692,
    "lng": 120.663431
  },
  {
    "date": "2024/11/26",
    "month": "2024-11",
    "lottery": "今彩539",
    "weight": 1,
    "color": "#d97706",
    "store": "陽益彩券行",
    "district": "新竹縣湖口鄉",
    "lat": 24.886389,
    "lng": 121.060227
  },
  {
    "date": "2024/11/26",
    "month": "2024-11",
    "lottery": "大樂透",
    "weight": 2,
    "color": "#fbbf24",
    "store": "恭喜商行",
    "district": "臺北市中山區",
    "lat": 25.07105,
    "lng": 121.541764
  },
  {
    "date": "2024/11/27",
    "month": "2024-11",
    "lottery": "今彩539",
    "weight": 1,
    "color": "#d97706",
    "store": "十全十美彩券行",
    "district": "高雄市三民區",
    "lat": 22.656204,
    "lng": 120.320193
  },
  {
    "date": "2024/11/28",
    "month": "2024-11",
    "lottery": "今彩539",
    "weight": 1,
    "color": "#d97706",
    "store": "寶玉麥當熊彩券投注站",
    "district": "彰化縣溪湖鎮",
    "lat": 23.954045,
    "lng": 120.486883
  },
  {
    "date": "2024/11/28",
    "month": "2024-11",
    "lottery": "今彩539",
    "weight": 1,
    "color": "#d97706",
    "store": "八億彩券行",
    "district": "彰化縣溪湖鎮",
    "lat": 23.954045,
    "lng": 120.486883
  },
  {
    "date": "2024/11/29",
    "month": "2024-11",
    "lottery": "今彩539",
    "weight": 1,
    "color": "#d97706",
    "store": "長瀛彩券商店",
    "district": "臺北市松山區",
    "lat": 25.057869,
    "lng": 121.559338
  },
  {
    "date": "2024/11/30",
    "month": "2024-11",
    "lottery": "今彩539",
    "weight": 1,
    "color": "#d97706",
    "store": "旺仔彩券行",
    "district": "高雄市小港區",
    "lat": 22.554614,
    "lng": 120.37014
  },
  {
    "date": "2024/12/02",
    "month": "2024-12",
    "lottery": "今彩539",
    "weight": 1,
    "color": "#d97706",
    "store": "金滿彩券行",
    "district": "桃園市大園區",
    "lat": 25.051397,
    "lng": 121.213514
  },
  {
    "date": "2024/12/02",
    "month": "2024-12",
    "lottery": "今彩539",
    "weight": 1,
    "color": "#d97706",
    "store": "日日中商行",
    "district": "臺中市北屯區",
    "lat": 24.178931,
    "lng": 120.739778
  },
  {
    "date": "2024/12/02",
    "month": "2024-12",
    "lottery": "今彩539",
    "weight": 1,
    "color": "#d97706",
    "store": "藍波萬彩券行",
    "district": "桃園市平鎮區",
    "lat": 24.919994,
    "lng": 121.216541
  },
  {
    "date": "2024/12/02",
    "month": "2024-12",
    "lottery": "今彩539",
    "weight": 1,
    "color": "#d97706",
    "store": "神奇彩券行",
    "district": "新北市中和區",
    "lat": 24.993918,
    "lng": 121.494671
  },
  {
    "date": "2024/12/02",
    "month": "2024-12",
    "lottery": "今彩539",
    "weight": 1,
    "color": "#d97706",
    "store": "恭喜發財樂透彩券行",
    "district": "新北市鶯歌區",
    "lat": 24.961315,
    "lng": 121.343942
  },
  {
    "date": "2024/12/03",
    "month": "2024-12",
    "lottery": "今彩539",
    "weight": 1,
    "color": "#d97706",
    "store": "囍發彩券行",
    "district": "新北市中和區",
    "lat": 24.993918,
    "lng": 121.494671
  },
  {
    "date": "2024/12/03",
    "month": "2024-12",
    "lottery": "大樂透",
    "weight": 2,
    "color": "#fbbf24",
    "store": "元宸投注站",
    "district": "臺北市信義區",
    "lat": 25.023785,
    "lng": 121.56766
  },
  {
    "date": "2024/12/05",
    "month": "2024-12",
    "lottery": "今彩539",
    "weight": 1,
    "color": "#d97706",
    "store": "市場致富彩券行",
    "district": "臺北市北投區",
    "lat": 25.166155,
    "lng": 121.517083
  },
  {
    "date": "2024/12/05",
    "month": "2024-12",
    "lottery": "今彩539",
    "weight": 1,
    "color": "#d97706",
    "store": "攏贏彩券行",
    "district": "苗栗縣竹南鎮",
    "lat": 24.697382,
    "lng": 120.885903
  },
  {
    "date": "2024/12/05",
    "month": "2024-12",
    "lottery": "今彩539",
    "weight": 1,
    "color": "#d97706",
    "store": "金蓮華彩券行",
    "district": "高雄市阿蓮區",
    "lat": 22.870339,
    "lng": 120.32049
  },
  {
    "date": "2024/12/07",
    "month": "2024-12",
    "lottery": "今彩539",
    "weight": 1,
    "color": "#d97706",
    "store": "大富豪彩券行",
    "district": "臺北市中山區",
    "lat": 25.07105,
    "lng": 121.541764
  },
  {
    "date": "2024/12/07",
    "month": "2024-12",
    "lottery": "今彩539",
    "weight": 1,
    "color": "#d97706",
    "store": "鑫來爺彩券行",
    "district": "南投縣埔里鎮",
    "lat": 23.966903,
    "lng": 120.968288
  },
  {
    "date": "2024/12/10",
    "month": "2024-12",
    "lottery": "今彩539",
    "weight": 1,
    "color": "#d97706",
    "store": "五星大福得彩券行",
    "district": "南投縣竹山鎮",
    "lat": 23.697732,
    "lng": 120.715419
  },
  {
    "date": "2024/12/11",
    "month": "2024-12",
    "lottery": "今彩539",
    "weight": 1,
    "color": "#d97706",
    "store": "十全十美彩券行",
    "district": "高雄市三民區",
    "lat": 22.656204,
    "lng": 120.320193
  },
  {
    "date": "2024/12/11",
    "month": "2024-12",
    "lottery": "今彩539",
    "weight": 1,
    "color": "#d97706",
    "store": "金昌隆彩券行",
    "district": "臺北市大安區",
    "lat": 25.026843,
    "lng": 121.546874
  },
  {
    "date": "2024/12/12",
    "month": "2024-12",
    "lottery": "今彩539",
    "weight": 1,
    "color": "#d97706",
    "store": "公博商行",
    "district": "高雄市鳳山區",
    "lat": 22.610643,
    "lng": 120.353508
  },
  {
    "date": "2024/12/12",
    "month": "2024-12",
    "lottery": "今彩539",
    "weight": 1,
    "color": "#d97706",
    "store": "慧溋彩券行",
    "district": "南投縣埔里鎮",
    "lat": 23.966903,
    "lng": 120.968288
  },
  {
    "date": "2024/12/12",
    "month": "2024-12",
    "lottery": "今彩539",
    "weight": 1,
    "color": "#d97706",
    "store": "帥成彩券行",
    "district": "臺北市萬華區",
    "lat": 25.027216,
    "lng": 121.494583
  },
  {
    "date": "2024/12/14",
    "month": "2024-12",
    "lottery": "今彩539",
    "weight": 1,
    "color": "#d97706",
    "store": "鑫永發彩券行",
    "district": "臺中市大甲區",
    "lat": 24.370036,
    "lng": 120.631167
  },
  {
    "date": "2024/12/16",
    "month": "2024-12",
    "lottery": "今彩539",
    "weight": 1,
    "color": "#d97706",
    "store": "惠德彩券行",
    "district": "南投縣草屯鎮",
    "lat": 23.978181,
    "lng": 120.737561
  },
  {
    "date": "2024/12/18",
    "month": "2024-12",
    "lottery": "今彩539",
    "weight": 1,
    "color": "#d97706",
    "store": "你會發彩券行",
    "district": "新竹市東區",
    "lat": 24.783546,
    "lng": 120.988759
  },
  {
    "date": "2024/12/21",
    "month": "2024-12",
    "lottery": "今彩539",
    "weight": 1,
    "color": "#d97706",
    "store": "利盈彩券行",
    "district": "嘉義縣中埔鄉",
    "lat": 23.400898,
    "lng": 120.519241
  },
  {
    "date": "2024/12/25",
    "month": "2024-12",
    "lottery": "今彩539",
    "weight": 1,
    "color": "#d97706",
    "store": "億豪彩券行",
    "district": "臺南市東區",
    "lat": 22.980863,
    "lng": 120.233783
  },
  {
    "date": "2024/12/26",
    "month": "2024-12",
    "lottery": "今彩539",
    "weight": 1,
    "color": "#d97706",
    "store": "穩中彩券行",
    "district": "新竹縣新埔鎮",
    "lat": 24.841404,
    "lng": 121.096789
  },
  {
    "date": "2024/12/27",
    "month": "2024-12",
    "lottery": "今彩539",
    "weight": 1,
    "color": "#d97706",
    "store": "六星報喜彩券行",
    "district": "臺北市萬華區",
    "lat": 25.027216,
    "lng": 121.494583
  },
  {
    "date": "2024/12/28",
    "month": "2024-12",
    "lottery": "今彩539",
    "weight": 1,
    "color": "#d97706",
    "store": "禾峰商行",
    "district": "彰化縣彰化市",
    "lat": 24.072242,
    "lng": 120.562039
  },
  {
    "date": "2024/12/30",
    "month": "2024-12",
    "lottery": "今彩539",
    "weight": 1,
    "color": "#d97706",
    "store": "元富彩券行",
    "district": "高雄市三民區",
    "lat": 22.656204,
    "lng": 120.320193
  },
  {
    "date": "2024/12/30",
    "month": "2024-12",
    "lottery": "今彩539",
    "weight": 1,
    "color": "#d97706",
    "store": "億金香彩券行",
    "district": "新北市土城區",
    "lat": 24.96641,
    "lng": 121.448583
  },
  {
    "date": "2025/01/02",
    "month": "2025-01",
    "lottery": "今彩539",
    "weight": 1,
    "color": "#d97706",
    "store": "久億彩券行",
    "district": "高雄市鼓山區",
    "lat": 22.645232,
    "lng": 120.274918
  },
  {
    "date": "2025/01/02",
    "month": "2025-01",
    "lottery": "今彩539",
    "weight": 1,
    "color": "#d97706",
    "store": "斗南金財神彩券行",
    "district": "雲林縣斗南鎮",
    "lat": 23.671929,
    "lng": 120.482861
  },
  {
    "date": "2025/01/03",
    "month": "2025-01",
    "lottery": "今彩539",
    "weight": 1,
    "color": "#d97706",
    "store": "超福運彩券行",
    "district": "新北市三重區",
    "lat": 25.064196,
    "lng": 121.496572
  },
  {
    "date": "2025/01/03",
    "month": "2025-01",
    "lottery": "今彩539",
    "weight": 1,
    "color": "#d97706",
    "store": "飛連發彩券行",
    "district": "新北市樹林區",
    "lat": 24.981896,
    "lng": 121.39795
  },
  {
    "date": "2025/01/04",
    "month": "2025-01",
    "lottery": "今彩539",
    "weight": 1,
    "color": "#d97706",
    "store": "鑫億發彩券行",
    "district": "高雄市鳳山區",
    "lat": 22.610643,
    "lng": 120.353508
  },
  {
    "date": "2025/01/04",
    "month": "2025-01",
    "lottery": "今彩539",
    "weight": 1,
    "color": "#d97706",
    "store": "鴻頂彩券行",
    "district": "新北市三重區",
    "lat": 25.064196,
    "lng": 121.496572
  },
  {
    "date": "2025/01/04",
    "month": "2025-01",
    "lottery": "今彩539",
    "weight": 1,
    "color": "#d97706",
    "store": "萊就發彩券行",
    "district": "新北市三重區",
    "lat": 25.064196,
    "lng": 121.496572
  },
  {
    "date": "2025/01/04",
    "month": "2025-01",
    "lottery": "今彩539",
    "weight": 1,
    "color": "#d97706",
    "store": "財神到投注站",
    "district": "臺北市內湖區",
    "lat": 25.088013,
    "lng": 121.610094
  },
  {
    "date": "2025/01/06",
    "month": "2025-01",
    "lottery": "今彩539",
    "weight": 1,
    "color": "#d97706",
    "store": "鑫旺彩券行",
    "district": "臺中市西屯區",
    "lat": 24.182215,
    "lng": 120.627593
  },
  {
    "date": "2025/01/06",
    "month": "2025-01",
    "lottery": "今彩539",
    "weight": 1,
    "color": "#d97706",
    "store": "蘇福彩券行",
    "district": "高雄市新興區",
    "lat": 22.630303,
    "lng": 120.307958
  },
  {
    "date": "2025/01/07",
    "month": "2025-01",
    "lottery": "今彩539",
    "weight": 1,
    "color": "#d97706",
    "store": "美人魚彩券行",
    "district": "高雄市左營區",
    "lat": 22.682266,
    "lng": 120.292526
  },
  {
    "date": "2025/01/07",
    "month": "2025-01",
    "lottery": "今彩539",
    "weight": 1,
    "color": "#d97706",
    "store": "神奇彩券行",
    "district": "新北市中和區",
    "lat": 24.993918,
    "lng": 121.494671
  },
  {
    "date": "2025/01/09",
    "month": "2025-01",
    "lottery": "今彩539",
    "weight": 1,
    "color": "#d97706",
    "store": "惠德樂電腦彩券行",
    "district": "臺北市中山區",
    "lat": 25.07105,
    "lng": 121.541764
  },
  {
    "date": "2025/01/10",
    "month": "2025-01",
    "lottery": "今彩539",
    "weight": 1,
    "color": "#d97706",
    "store": "億億來彩券行",
    "district": "雲林縣西螺鎮",
    "lat": 23.777393,
    "lng": 120.452942
  },
  {
    "date": "2025/01/10",
    "month": "2025-01",
    "lottery": "今彩539",
    "weight": 1,
    "color": "#d97706",
    "store": "鑫旺億商行",
    "district": "新北市三重區",
    "lat": 25.064196,
    "lng": 121.496572
  },
  {
    "date": "2025/01/10",
    "month": "2025-01",
    "lottery": "今彩539",
    "weight": 1,
    "color": "#d97706",
    "store": "福茂彩券行",
    "district": "雲林縣斗六市",
    "lat": 23.699892,
    "lng": 120.571829
  },
  {
    "date": "2025/01/11",
    "month": "2025-01",
    "lottery": "今彩539",
    "weight": 1,
    "color": "#d97706",
    "store": "銘澤發彩券行",
    "district": "雲林縣莿桐鄉",
    "lat": 23.766454,
    "lng": 120.534967
  },
  {
    "date": "2025/01/11",
    "month": "2025-01",
    "lottery": "今彩539",
    "weight": 1,
    "color": "#d97706",
    "store": "伍星瑩彩券行",
    "district": "臺中市沙鹿區",
    "lat": 24.231531,
    "lng": 120.582453
  },
  {
    "date": "2025/01/14",
    "month": "2025-01",
    "lottery": "今彩539",
    "weight": 1,
    "color": "#d97706",
    "store": "開鑫彩券行",
    "district": "高雄市三民區",
    "lat": 22.656204,
    "lng": 120.320193
  },
  {
    "date": "2025/01/15",
    "month": "2025-01",
    "lottery": "今彩539",
    "weight": 1,
    "color": "#d97706",
    "store": "每其發彩券行",
    "district": "新北市淡水區",
    "lat": 25.168258,
    "lng": 121.482692
  },
  {
    "date": "2025/01/15",
    "month": "2025-01",
    "lottery": "今彩539",
    "weight": 1,
    "color": "#d97706",
    "store": "李華泰彩券行",
    "district": "新北市中和區",
    "lat": 24.993918,
    "lng": 121.494671
  },
  {
    "date": "2025/01/15",
    "month": "2025-01",
    "lottery": "今彩539",
    "weight": 1,
    "color": "#d97706",
    "store": "喜迎財彩券行",
    "district": "臺北市大同區",
    "lat": 25.064035,
    "lng": 121.508044
  },
  {
    "date": "2025/01/16",
    "month": "2025-01",
    "lottery": "今彩539",
    "weight": 1,
    "color": "#d97706",
    "store": "億來發彩券行",
    "district": "臺東縣臺東市",
    "lat": 22.762801,
    "lng": 121.113429
  },
  {
    "date": "2025/01/16",
    "month": "2025-01",
    "lottery": "今彩539",
    "weight": 1,
    "color": "#d97706",
    "store": "吉時彩券行",
    "district": "彰化縣田中鎮",
    "lat": 23.859352,
    "lng": 120.595218
  },
  {
    "date": "2025/01/17",
    "month": "2025-01",
    "lottery": "今彩539",
    "weight": 1,
    "color": "#d97706",
    "store": "金銀島彩券行",
    "district": "臺中市霧峰區",
    "lat": 24.057827,
    "lng": 120.737643
  },
  {
    "date": "2025/01/18",
    "month": "2025-01",
    "lottery": "今彩539",
    "weight": 1,
    "color": "#d97706",
    "store": "建國彩券行",
    "district": "桃園市觀音區",
    "lat": 25.01911,
    "lng": 121.1106
  },
  {
    "date": "2025/01/18",
    "month": "2025-01",
    "lottery": "今彩539",
    "weight": 1,
    "color": "#d97706",
    "store": "好彩運彩券行",
    "district": "嘉義市西區",
    "lat": 23.476874,
    "lng": 120.421434
  },
  {
    "date": "2025/01/18",
    "month": "2025-01",
    "lottery": "今彩539",
    "weight": 1,
    "color": "#d97706",
    "store": "億徠富彩券行",
    "district": "臺南市南區",
    "lat": 22.94671,
    "lng": 120.187394
  },
  {
    "date": "2025/01/20",
    "month": "2025-01",
    "lottery": "今彩539",
    "weight": 1,
    "color": "#d97706",
    "store": "大百利彩券行",
    "district": "臺南市鹽水區",
    "lat": 23.297108,
    "lng": 120.248586
  },
  {
    "date": "2025/01/21",
    "month": "2025-01",
    "lottery": "今彩539",
    "weight": 1,
    "color": "#d97706",
    "store": "賀野彩券行",
    "district": "高雄市大寮區",
    "lat": 22.579222,
    "lng": 120.396786
  },
  {
    "date": "2025/01/23",
    "month": "2025-01",
    "lottery": "今彩539",
    "weight": 1,
    "color": "#d97706",
    "store": "昌鑫旺彩券行",
    "district": "彰化縣鹿港鎮",
    "lat": 24.075748,
    "lng": 120.431393
  },
  {
    "date": "2025/01/24",
    "month": "2025-01",
    "lottery": "大樂透",
    "weight": 2,
    "color": "#fbbf24",
    "store": "旺伯彩券行",
    "district": "臺中市烏日區",
    "lat": 24.083815,
    "lng": 120.632035
  },
  {
    "date": "2025/01/24",
    "month": "2025-01",
    "lottery": "今彩539",
    "weight": 1,
    "color": "#d97706",
    "store": "陸玖玖彩券行",
    "district": "嘉義縣民雄鄉",
    "lat": 23.540337,
    "lng": 120.451897
  },
  {
    "date": "2025/01/24",
    "month": "2025-01",
    "lottery": "今彩539",
    "weight": 1,
    "color": "#d97706",
    "store": "鴻發彩券行",
    "district": "新北市樹林區",
    "lat": 24.981896,
    "lng": 121.39795
  },
  {
    "date": "2025/01/24",
    "month": "2025-01",
    "lottery": "今彩539",
    "weight": 1,
    "color": "#d97706",
    "store": "芊煜商行",
    "district": "基隆市中山區",
    "lat": 25.151837,
    "lng": 121.731311
  },
  {
    "date": "2025/01/25",
    "month": "2025-01",
    "lottery": "今彩539",
    "weight": 1,
    "color": "#d97706",
    "store": "吉時彩券行",
    "district": "彰化縣田中鎮",
    "lat": 23.859352,
    "lng": 120.595218
  },
  {
    "date": "2025/01/26",
    "month": "2025-01",
    "lottery": "大樂透",
    "weight": 2,
    "color": "#fbbf24",
    "store": "金億彩券行",
    "district": "桃園市楊梅區",
    "lat": 24.916253,
    "lng": 121.123672
  },
  {
    "date": "2025/01/27",
    "month": "2025-01",
    "lottery": "大樂透",
    "weight": 2,
    "color": "#fbbf24",
    "store": "錢送你彩券行",
    "district": "花蓮縣瑞穗鄉",
    "lat": 23.517814,
    "lng": 121.405707
  },
  {
    "date": "2025/01/29",
    "month": "2025-01",
    "lottery": "今彩539",
    "weight": 1,
    "color": "#d97706",
    "store": "大利多彩券行",
    "district": "南投縣中寮鄉",
    "lat": 23.910111,
    "lng": 120.781822
  },
  {
    "date": "2025/01/30",
    "month": "2025-01",
    "lottery": "大樂透",
    "weight": 2,
    "color": "#fbbf24",
    "store": "龍億來彩券行",
    "district": "高雄市三民區",
    "lat": 22.656204,
    "lng": 120.320193
  },
  {
    "date": "2025/01/30",
    "month": "2025-01",
    "lottery": "大樂透",
    "weight": 2,
    "color": "#fbbf24",
    "store": "全福順彩券行",
    "district": "臺中市東勢區",
    "lat": 24.254962,
    "lng": 120.838902
  },
  {
    "date": "2025/01/30",
    "month": "2025-01",
    "lottery": "今彩539",
    "weight": 1,
    "color": "#d97706",
    "store": "增富彩券行",
    "district": "新北市瑞芳區",
    "lat": 25.102735,
    "lng": 121.832507
  },
  {
    "date": "2025/01/30",
    "month": "2025-01",
    "lottery": "今彩539",
    "weight": 1,
    "color": "#d97706",
    "store": "財神到彩券行",
    "district": "金門縣金湖鎮",
    "lat": 24.43659,
    "lng": 118.425671
  },
  {
    "date": "2025/01/30",
    "month": "2025-01",
    "lottery": "今彩539",
    "weight": 1,
    "color": "#d97706",
    "store": "多財彩券行",
    "district": "高雄市美濃區",
    "lat": 22.906768,
    "lng": 120.564658
  },
  {
    "date": "2025/01/31",
    "month": "2025-01",
    "lottery": "今彩539",
    "weight": 1,
    "color": "#d97706",
    "store": "鑫來發彩券行",
    "district": "高雄市鳳山區",
    "lat": 22.610643,
    "lng": 120.353508
  },
  {
    "date": "2025/01/31",
    "month": "2025-01",
    "lottery": "今彩539",
    "weight": 1,
    "color": "#d97706",
    "store": "金董彩券行",
    "district": "臺中市北屯區",
    "lat": 24.178931,
    "lng": 120.739778
  },
  {
    "date": "2025/01/31",
    "month": "2025-01",
    "lottery": "今彩539",
    "weight": 1,
    "color": "#d97706",
    "store": "億來旺彩券行",
    "district": "彰化縣線西鄉",
    "lat": 24.132741,
    "lng": 120.44796
  },
  {
    "date": "2025/01/31",
    "month": "2025-01",
    "lottery": "今彩539",
    "weight": 1,
    "color": "#d97706",
    "store": "幸運商行",
    "district": "臺中市北屯區",
    "lat": 24.178931,
    "lng": 120.739778
  },
  {
    "date": "2025/02/01",
    "month": "2025-02",
    "lottery": "今彩539",
    "weight": 1,
    "color": "#d97706",
    "store": "億連發彩券行",
    "district": "臺北市大安區",
    "lat": 25.026843,
    "lng": 121.546874
  },
  {
    "date": "2025/02/01",
    "month": "2025-02",
    "lottery": "今彩539",
    "weight": 1,
    "color": "#d97706",
    "store": "財神爺彩券行",
    "district": "屏東縣潮州鎮",
    "lat": 22.541624,
    "lng": 120.547841
  },
  {
    "date": "2025/02/01",
    "month": "2025-02",
    "lottery": "今彩539",
    "weight": 1,
    "color": "#d97706",
    "store": "發發發彩券行",
    "district": "新竹縣關西鎮",
    "lat": 24.78752,
    "lng": 121.186244
  },
  {
    "date": "2025/02/02",
    "month": "2025-02",
    "lottery": "大樂透",
    "weight": 2,
    "color": "#fbbf24",
    "store": "家家福投注站",
    "district": "臺中市神岡區",
    "lat": 24.256672,
    "lng": 120.674946
  },
  {
    "date": "2025/02/02",
    "month": "2025-02",
    "lottery": "今彩539",
    "weight": 1,
    "color": "#d97706",
    "store": "佳盈彩券行",
    "district": "高雄市鼓山區",
    "lat": 22.645232,
    "lng": 120.274918
  },
  {
    "date": "2025/02/03",
    "month": "2025-02",
    "lottery": "今彩539",
    "weight": 1,
    "color": "#d97706",
    "store": "得億來彩券行",
    "district": "臺北市中山區",
    "lat": 25.07105,
    "lng": 121.541764
  },
  {
    "date": "2025/02/05",
    "month": "2025-02",
    "lottery": "今彩539",
    "weight": 1,
    "color": "#d97706",
    "store": "贏滿滿彩券行",
    "district": "新北市板橋區",
    "lat": 25.013664,
    "lng": 121.469232
  },
  {
    "date": "2025/02/06",
    "month": "2025-02",
    "lottery": "今彩539",
    "weight": 1,
    "color": "#d97706",
    "store": "財滿貫彩券行",
    "district": "臺北市中山區",
    "lat": 25.07105,
    "lng": 121.541764
  },
  {
    "date": "2025/02/06",
    "month": "2025-02",
    "lottery": "今彩539",
    "weight": 1,
    "color": "#d97706",
    "store": "苾富彩券行",
    "district": "高雄市大社區",
    "lat": 22.741153,
    "lng": 120.371689
  },
  {
    "date": "2025/02/07",
    "month": "2025-02",
    "lottery": "今彩539",
    "weight": 1,
    "color": "#d97706",
    "store": "喜迎富彩券行",
    "district": "新北市新莊區",
    "lat": 25.035566,
    "lng": 121.427788
  },
  {
    "date": "2025/02/08",
    "month": "2025-02",
    "lottery": "今彩539",
    "weight": 1,
    "color": "#d97706",
    "store": "金錢櫃彩券行",
    "district": "桃園市楊梅區",
    "lat": 24.916253,
    "lng": 121.123672
  },
  {
    "date": "2025/02/10",
    "month": "2025-02",
    "lottery": "今彩539",
    "weight": 1,
    "color": "#d97706",
    "store": "來富貴彩券行",
    "district": "臺南市新營區",
    "lat": 23.309858,
    "lng": 120.298955
  },
  {
    "date": "2025/02/13",
    "month": "2025-02",
    "lottery": "今彩539",
    "weight": 1,
    "color": "#d97706",
    "store": "雍東彩券行",
    "district": "屏東縣屏東市",
    "lat": 22.666038,
    "lng": 120.487866
  },
  {
    "date": "2025/02/13",
    "month": "2025-02",
    "lottery": "今彩539",
    "weight": 1,
    "color": "#d97706",
    "store": "興鑫鑫來投注站",
    "district": "彰化縣埔心鄉",
    "lat": 23.95587,
    "lng": 120.529694
  },
  {
    "date": "2025/02/14",
    "month": "2025-02",
    "lottery": "今彩539",
    "weight": 1,
    "color": "#d97706",
    "store": "來富貴彩券行",
    "district": "臺南市新營區",
    "lat": 23.309858,
    "lng": 120.298955
  },
  {
    "date": "2025/02/14",
    "month": "2025-02",
    "lottery": "今彩539",
    "weight": 1,
    "color": "#d97706",
    "store": "一來發彩券行",
    "district": "嘉義市東區",
    "lat": 23.48393,
    "lng": 120.469384
  },
  {
    "date": "2025/02/14",
    "month": "2025-02",
    "lottery": "今彩539",
    "weight": 1,
    "color": "#d97706",
    "store": "飆發戶彩券行",
    "district": "新竹縣湖口鄉",
    "lat": 24.886389,
    "lng": 121.060227
  },
  {
    "date": "2025/02/14",
    "month": "2025-02",
    "lottery": "大樂透",
    "weight": 2,
    "color": "#fbbf24",
    "store": "幸運商行",
    "district": "臺中市北屯區",
    "lat": 24.178931,
    "lng": 120.739778
  },
  {
    "date": "2025/02/15",
    "month": "2025-02",
    "lottery": "今彩539",
    "weight": 1,
    "color": "#d97706",
    "store": "興煥投注站",
    "district": "苗栗縣公館鄉",
    "lat": 24.501578,
    "lng": 120.854881
  },
  {
    "date": "2025/02/15",
    "month": "2025-02",
    "lottery": "今彩539",
    "weight": 1,
    "color": "#d97706",
    "store": "鑫財富彩券行",
    "district": "臺中市太平區",
    "lat": 24.104296,
    "lng": 120.783748
  },
  {
    "date": "2025/02/17",
    "month": "2025-02",
    "lottery": "今彩539",
    "weight": 1,
    "color": "#d97706",
    "store": "錢福袋樂透站",
    "district": "南投縣名間鄉",
    "lat": 23.84846,
    "lng": 120.662268
  },
  {
    "date": "2025/02/17",
    "month": "2025-02",
    "lottery": "今彩539",
    "weight": 1,
    "color": "#d97706",
    "store": "金牌彩券行",
    "district": "桃園市桃園區",
    "lat": 24.995152,
    "lng": 121.29819
  },
  {
    "date": "2025/02/18",
    "month": "2025-02",
    "lottery": "大樂透",
    "weight": 2,
    "color": "#fbbf24",
    "store": "大發財電腦彩券行",
    "district": "雲林縣斗六市",
    "lat": 23.699892,
    "lng": 120.571829
  },
  {
    "date": "2025/02/19",
    "month": "2025-02",
    "lottery": "今彩539",
    "weight": 1,
    "color": "#d97706",
    "store": "發發彩券行",
    "district": "新北市汐止區",
    "lat": 25.072574,
    "lng": 121.633024
  },
  {
    "date": "2025/02/20",
    "month": "2025-02",
    "lottery": "今彩539",
    "weight": 1,
    "color": "#d97706",
    "store": "錢隆發彩券行",
    "district": "臺中市烏日區",
    "lat": 24.083815,
    "lng": 120.632035
  },
  {
    "date": "2025/02/21",
    "month": "2025-02",
    "lottery": "今彩539",
    "weight": 1,
    "color": "#d97706",
    "store": "金好旺彩券行",
    "district": "高雄市前鎮區",
    "lat": 22.586927,
    "lng": 120.315793
  },
  {
    "date": "2025/02/22",
    "month": "2025-02",
    "lottery": "今彩539",
    "weight": 1,
    "color": "#d97706",
    "store": "連發億彩券行",
    "district": "新北市鶯歌區",
    "lat": 24.961315,
    "lng": 121.343942
  },
  {
    "date": "2025/02/22",
    "month": "2025-02",
    "lottery": "今彩539",
    "weight": 1,
    "color": "#d97706",
    "store": "連發億彩券行",
    "district": "新北市鶯歌區",
    "lat": 24.961315,
    "lng": 121.343942
  },
  {
    "date": "2025/02/22",
    "month": "2025-02",
    "lottery": "今彩539",
    "weight": 1,
    "color": "#d97706",
    "store": "連發億彩券行",
    "district": "新北市鶯歌區",
    "lat": 24.961315,
    "lng": 121.343942
  },
  {
    "date": "2025/02/22",
    "month": "2025-02",
    "lottery": "今彩539",
    "weight": 1,
    "color": "#d97706",
    "store": "億來國際企業社",
    "district": "新北市板橋區",
    "lat": 25.013664,
    "lng": 121.469232
  },
  {
    "date": "2025/02/22",
    "month": "2025-02",
    "lottery": "今彩539",
    "weight": 1,
    "color": "#d97706",
    "store": "大立旺彩券行",
    "district": "臺中市豐原區",
    "lat": 24.243531,
    "lng": 120.736599
  },
  {
    "date": "2025/02/24",
    "month": "2025-02",
    "lottery": "威力彩",
    "weight": 3,
    "color": "#ff6b35",
    "store": "金發野彩券行",
    "district": "新北市樹林區",
    "lat": 24.981896,
    "lng": 121.39795
  },
  {
    "date": "2025/02/25",
    "month": "2025-02",
    "lottery": "今彩539",
    "weight": 1,
    "color": "#d97706",
    "store": "來旺彩券行",
    "district": "花蓮縣鳳林鎮",
    "lat": 23.74534,
    "lng": 121.467366
  },
  {
    "date": "2025/02/25",
    "month": "2025-02",
    "lottery": "今彩539",
    "weight": 1,
    "color": "#d97706",
    "store": "日日發商行",
    "district": "臺北市萬華區",
    "lat": 25.027216,
    "lng": 121.494583
  },
  {
    "date": "2025/02/25",
    "month": "2025-02",
    "lottery": "今彩539",
    "weight": 1,
    "color": "#d97706",
    "store": "德溢投注站",
    "district": "臺北市內湖區",
    "lat": 25.088013,
    "lng": 121.610094
  },
  {
    "date": "2025/02/25",
    "month": "2025-02",
    "lottery": "今彩539",
    "weight": 1,
    "color": "#d97706",
    "store": "日日發商行",
    "district": "臺北市萬華區",
    "lat": 25.027216,
    "lng": 121.494583
  },
  {
    "date": "2025/02/26",
    "month": "2025-02",
    "lottery": "今彩539",
    "weight": 1,
    "color": "#d97706",
    "store": "金富發彩券行",
    "district": "臺東縣臺東市",
    "lat": 22.762801,
    "lng": 121.113429
  },
  {
    "date": "2025/02/26",
    "month": "2025-02",
    "lottery": "今彩539",
    "weight": 1,
    "color": "#d97706",
    "store": "億萬來投注站",
    "district": "桃園市桃園區",
    "lat": 24.995152,
    "lng": 121.29819
  },
  {
    "date": "2025/02/26",
    "month": "2025-02",
    "lottery": "今彩539",
    "weight": 1,
    "color": "#d97706",
    "store": "金多星彩券行",
    "district": "新竹縣新豐鄉",
    "lat": 24.909558,
    "lng": 121.00088
  },